Municipality code,Municipality,Population2016,Population2017,Population2018,Cases2016,Cases2017,Cases2018,Age0-4(%),Age5-14(%),Age15-29(%),Age>30(%),AfrocolombianPopulation(%),IndianPopulation(%),PeoplewithDisabilities(%),Peoplewhocannotreadorwrite(%),Secondary/HigherEducation(%),Employedpopulation(%),Unemployedpopulation(%),Peopledoinghousework(%),Retiredpeople(%),Men(%),Women(%),Householdswithoutwateraccess(%),Householdswithoutinternetaccess(%),Buildingstratification1(%),Buildingstratification2(%),Buildingstratification3(%),Buildingstratification4(%),Buildingstratification5(%),Buildingstratification6(%),NumberofhospitalsperKm2,NumberofhousesperKm2,Código Municipio,Longitud,Latitud,2016_dengue,2017_dengue,2018_dengue,2016_temp,2017_temp,2018_temp,2016_precip,2017_precip,2018_precip,strata
5001,Medellín,2420516,2414616,2427129,17306,2100,1172,5.16,11.96,26.71,56.16,2.51,0.09,6.27,3.17,67.43,43.23,5.64,13.91,5.47,47.01,52.99,1.44,29.47,12.1117,31.2817,26.0471,9.0279,6.4855,3.7062,1.5552629999999998,2102.057895,5001,-75.5882890339,6.249349223067857,332.8076923076923,39.924528301886795,22.666666666666668,21.94391051928203,21.350182096163433,21.257987141609195,170.8604119618735,192.81590906778976,215.53116162618008,3
5002,Abejorral,19979,20047,20367,5,1,2,5.24,14.92,22.29,57.55,0.35,0.01,16.05,9.89,33.65,39.6,0.89,26.37,1.43,51.93,48.07,21.87,56.27,31.352,33.8306,2.0439,0.0352,0.0117,0.0,0.002012,11.945674,5002,-75.46613304235,5.76641468362,0.09615384615384616,0.018867924528301886,0.0392156862745098,17.42744509379069,16.812015652656537,16.76592179139454,170.3625370661419,189.62665367126473,213.9865916570028,3
5004,Abriaquí,2539,2593,2695,2,0,1,6.07,14.08,23.76,56.09,1.99,0.0,16.72,6.72,45.72,36.78,1.85,24.5,1.16,54.24,45.76,24.03,62.35,21.5705,39.1675,4.3519,0.0946,0.1892,0.1892,0.0,2.548276,5004,-76.07685123275,6.653536150845,0.038461538461538464,0.0,0.0196078431372549,17.989909013112385,17.394740978876747,17.33956881364187,154.81913057963047,182.6111195882161,194.35935274759933,2
5021,Alejandría,4543,4570,4657,5,0,0,6.59,15.73,21.91,55.77,0.31,0.0,8.1,8.75,38.79,37.07,1.25,25.89,0.86,49.8,50.2,17.06,54.61,17.9879,38.5721,4.8215,0.1854,0.0464,0.0464,0.006623,9.092715,5021,-75.141334501,6.37606264274,0.09615384615384616,0.0,0.0,21.773093620936066,21.14550399780274,21.05367803573608,182.09369532267246,203.08591461181626,231.36044915517172,3
5030,Amagá,29006,29429,30227,196,17,3,5.42,13.36,25.71,55.5,0.48,0.03,9.02,7.68,51.67,39.21,3.36,21.48,3.56,49.37,50.63,3.31,56.12,27.8784,42.028,3.4086,0.1889,0.146,0.0172,0.011765,102.752941,5030,-75.70082083981112,6.0515859499677775,3.769230769230769,0.32075471698113206,0.058823529411764705,21.68344473838805,21.088197191556286,21.0197076400121,161.46295611063633,182.512326558431,202.97711372375485,2
5031,Amalfi,24794,25205,25962,4,2,3,6.5,17.97,26.95,48.58,0.5,0.01,8.09,10.2,40.78,38.31,2.74,22.5,0.64,50.22,49.78,31.18,59.46,28.0338,23.4831,15.748,0.1853,0.0463,0.0579,0.000817,5.373366000000001,5031,-75.00242091295,6.855395622890001,0.07692307692307693,0.03773584905660377,0.058823529411764705,22.661413033803303,22.071663816769913,21.947379748026545,197.8246269226075,228.3909098307291,254.58414618174228,3
5034,Andes,42564,42614,43269,188,6,2,5.79,14.73,25.3,54.18,0.6,0.65,10.77,10.08,41.52,38.89,1.98,22.1,0.98,51.85,48.15,26.47,66.17,21.4644,53.3384,6.1003,0.2539,0.0343,0.0274,0.002227,26.946548,5034,-75.8931036585125,5.6554547664375,3.6153846153846154,0.11320754716981132,0.0392156862745098,17.843293944994628,17.238649884859726,17.20766039689381,169.22445805867508,194.0331172943116,211.47866884867358,3
5036,Angelópolis,5649,5669,5756,5,0,0,5.57,14.64,24.47,55.32,0.54,0.06,23.14,9.57,41.62,39.07,1.93,22.94,3.56,50.49,49.51,8.39,45.96,29.2683,37.3556,5.1348,0.0856,0.0,0.0,0.0114939999999999,19.735632,5036,-75.71833736525,6.1031503561625,0.09615384615384616,0.0,0.0,20.94764550526936,20.36239528656006,20.28389398256938,162.71624024709058,185.8136342366537,203.94304084777824,3
5038,Angostura,11210,11241,11437,1,0,0,6.67,17.38,26.59,49.36,0.5,0.0,16.7,12.69,34.75,34.38,2.53,28.0,0.44,50.73,49.27,19.29,68.53,42.085,25.3183,4.7802,0.048,0.048,0.024,0.002551,7.994897999999999,5038,-75.41128404630001,6.84908026192,0.019230769230769232,0.0,0.0,19.155517737070713,18.54631650447846,18.443922082583107,172.98165734608963,201.53021049499512,222.23462518056223,3
5040,Anorí,16180,17394,18321,3,4,3,7.71,20.7,28.59,43.0,1.68,1.15,10.78,10.87,35.8,35.21,2.63,22.15,0.21,51.74,48.26,33.61,62.39,32.0513,24.2369,5.3419,0.0305,0.0153,0.0,0.000691,3.1783,5040,-75.1483449609,7.07471004137,0.057692307692307696,0.07547169811320754,0.058823529411764705,23.346795399983723,22.75319759051003,22.628826618194584,205.7102890014647,238.32855733235684,259.29539426167804,3
5042,Santa Fé de Antioquia,25600,25727,26164,115,22,10,6.08,15.37,25.56,52.98,3.31,0.1,6.98,8.67,48.17,40.01,3.86,18.08,1.59,49.69,50.31,6.15,46.8,29.8484,26.0248,6.8808,1.042,0.9042,0.267,0.0020039999999999,15.466934,5042,-75.8772836177,6.513220246046667,2.2115384615384617,0.41509433962264153,0.19607843137254902,22.625344514846805,22.03249128659567,21.953071435292557,175.06240145365396,202.03806114196792,222.293659845988,3
5044,Anzá,6910,6905,7010,0,1,0,6.78,16.69,26.0,50.53,0.34,0.03,11.24,13.79,32.65,39.25,1.85,23.45,0.59,51.72,48.28,18.0,68.05,39.6905,22.3007,5.4827,0.0,0.0,0.0,0.003906,8.191406,5044,-75.8935012704,6.32474259209,0.0,0.018867924528301886,0.0,20.322873830795285,19.74969681104024,19.665647387504574,169.351271947225,198.00864728291825,211.03506978352854,3
5045,Apartadó,118802,119318,121003,76,138,387,7.72,18.42,29.13,44.72,37.8,0.71,6.9,6.08,57.72,36.3,5.54,17.07,0.71,49.22,50.78,6.81,49.8,45.9367,25.6242,11.3066,1.8285,0.159,0.0075,0.057661,57.013180000000006,5045,-76.65533669269091,7.858490329737273,1.4615384615384615,2.7169811320754715,7.470588235294118,27.193696657816556,26.656782865524303,26.59074552853903,184.832641283671,214.65666103363046,212.0285425186158,3
5051,Arboletes,28865,28862,29295,51,50,96,8.22,21.14,24.66,45.98,27.05,3.64,8.74,11.95,45.47,25.86,6.06,26.59,0.4,50.3,49.7,34.7,78.56,68.4472,13.8695,1.7766,0.0474,0.0237,0.0118,0.004178,10.130919,5051,-76.40941042237779,8.619187498028888,0.9807692307692307,0.9433962264150944,1.8823529411764706,27.977014462153132,27.46328457196552,27.371603806813557,116.68118111292529,131.93744134902948,133.61978117624915,1
5055,Argelia,7727,7676,7689,2,0,1,6.83,18.6,24.23,50.34,0.84,0.03,8.71,9.85,37.35,36.97,1.91,25.24,0.43,51.75,48.25,22.68,62.63,51.783,11.399,0.701,0.0305,0.0305,0.061,0.0038909999999999,8.743191,5055,-75.1410633595,5.73147922832,0.038461538461538464,0.0,0.0196078431372549,23.991848627726238,23.382538954416916,23.335772434870403,169.93537648518875,189.75443903605154,212.06181017557776,3
5059,Armenia,5218,5123,5139,16,0,0,4.4,13.14,18.43,64.02,0.18,0.08,9.01,16.52,33.67,36.45,2.44,28.88,1.05,50.07,49.93,17.59,59.92,12.2723,42.2819,9.8274,0.1438,0.0479,0.0,0.009009,12.378378,5059,-75.7993977227,6.150097453434,0.3076923076923077,0.0,0.0,24.106070677439376,23.528032461802166,23.44715150197347,150.42512385050443,172.30413309733083,189.3932161331177,2
5079,Barbosa,48938,49978,51969,125,107,78,5.01,13.2,25.06,56.73,0.51,0.04,7.27,5.92,54.85,42.58,4.04,18.6,3.27,49.62,50.38,22.69,56.29,15.8122,59.7962,5.5792,0.364,0.2392,0.1196,0.019231,76.572115,5079,-75.37243547275385,6.426614059991538,2.4038461538461537,2.0754716981132075,1.4705882352941178,22.405947923660264,21.779450654983524,21.688109238942484,172.14222780863432,194.08365758260086,221.61895720163977,3
5086,Belmira,5917,5911,6000,3,0,1,6.26,17.48,27.0,49.26,39.22,0.02,8.95,7.63,45.13,39.04,1.03,22.66,0.54,50.83,49.17,28.28,55.99,13.0719,45.098,7.5817,0.1743,0.0436,0.0,0.003584,5.526882,5086,-75.65056456426667,6.6430961516933325,0.057692307692307696,0.0,0.0196078431372549,13.333214402198792,12.722081561883293,12.631521423657732,143.33715883890792,168.76475811004624,187.52818806966152,2
5088,Bello,481333,504580,522264,1749,204,89,5.6,12.86,27.85,53.69,1.94,0.06,6.4,3.01,66.68,41.82,5.41,14.84,4.39,48.14,51.86,5.89,32.23,22.493,28.2074,30.0289,4.9136,0.046,0.0239,0.140845,1092.288732,5088,-75.57820464817142,6.342150511068572,33.63461538461539,3.8679245283018866,1.7254901960784315,17.430768211682626,16.832960049311318,16.74073624610901,160.40041605631504,182.2064781188965,201.975075085958,2
5091,Betania,10161,10168,10323,115,11,3,6.21,16.6,25.02,52.17,0.75,0.37,9.54,12.56,34.14,37.7,1.28,25.51,0.14,52.12,47.88,30.44,61.11,10.2024,52.7352,6.0996,0.0,0.0274,0.0274,0.005882,15.252941,5091,-75.9815686282,5.74984834526,2.2115384615384617,0.20754716981132076,0.058823529411764705,21.323567509651173,20.722338040669758,20.69088550408682,154.06780846913662,176.25189463297536,191.30188433329263,2
5093,Betulia,15374,15384,15607,49,12,8,6.94,17.83,26.19,49.04,0.47,0.18,9.83,14.65,33.07,38.71,1.07,23.86,0.21,51.38,48.62,19.34,62.6,40.3075,18.4956,4.492,0.5879,0.1055,0.0603,0.003922,18.470588,5093,-75.96688467755,6.167459349095,0.9423076923076923,0.22641509433962265,0.1568627450980392,23.119649648666392,22.54751396179199,22.467761437098176,156.3402535120645,177.52152633666995,196.865361213684,2
5101,Ciudad Bolívar,27585,26369,26118,84,18,9,5.6,15.3,24.07,55.02,0.82,1.09,11.68,10.92,42.22,39.08,2.54,21.99,1.19,50.01,49.99,15.7,58.26,16.951,36.2473,20.2132,0.4158,0.032,0.0,0.003509,25.754386,5101,-76.01135903436,5.838879702836,1.6153846153846154,0.33962264150943394,0.17647058823529413,22.28235777219137,21.690198977788317,21.64872789382936,160.59031073252348,183.90020942687985,200.92781575520837,2
5107,Briceño,7895,7906,8039,1,4,27,7.47,22.22,26.15,44.16,0.52,0.05,17.22,13.25,31.74,21.51,13.52,23.46,0.0,51.65,48.35,31.33,69.5,39.4558,24.4898,4.4218,0.0378,0.0,0.0,0.002463,4.714286,5107,-75.57016014334,7.137202222148,0.019230769230769232,0.07547169811320754,0.5294117647058824,21.493415514628083,20.883172671000164,20.78979126612347,190.71263567606618,224.71492576599118,240.43832969665525,3
5113,Buriticá,8488,8839,9354,12,26,1,7.27,18.05,27.28,47.4,0.36,0.0,4.66,11.04,36.42,34.26,3.47,27.86,0.11,52.3,47.7,11.99,68.38,51.7701,21.0305,0.7711,0.0351,0.0,0.0,0.002717,5.880434999999999,5113,-75.90935638086667,6.751174403843334,0.23076923076923078,0.49056603773584906,0.0196078431372549,22.070073366165158,21.458636879920977,21.38691361745199,172.7684758504232,200.688256263733,214.21102873484298,3
5120,Cáceres,28609,28572,28996,8,5,80,9.0,23.81,26.17,41.02,2.26,6.33,9.15,15.39,34.5,30.5,2.41,21.73,0.07,52.13,47.87,52.6,74.05,60.8627,4.6418,0.1802,0.0106,0.0,0.0,0.0005009999999999,3.767034,5120,-75.2787733192,7.767112226592,0.15384615384615385,0.09433962264150944,1.5686274509803921,28.272655248641957,27.6900522708893,27.57213433583578,220.546442826589,258.3648945490518,275.6466601689656,3
5125,Caicedo,8174,8164,8297,8,1,0,7.34,18.27,26.7,47.69,0.23,0.01,13.85,11.81,33.6,28.85,9.6,23.5,0.13,50.38,49.62,16.71,65.24,40.2742,25.7653,1.8814,0.0,0.0,0.0,0.004525,10.063348,5125,-75.9828123649,6.40556397358,0.15384615384615385,0.018867924528301886,0.0,18.73442137241363,18.151522000630692,18.075284838676467,159.49855709075942,187.5984319051105,201.8394629160564,2
5129,Caldas,77356,78178,79638,174,5,7,4.62,11.2,25.42,58.75,0.54,0.06,11.61,3.41,63.0,43.95,4.0,17.66,5.89,47.98,52.02,4.41,32.91,8.981,58.9961,21.6561,0.3653,0.1808,0.0301,0.030075,181.827068,5129,-75.63758017633572,6.0815006408457135,3.3461538461538463,0.09433962264150944,0.13725490196078433,19.2576262553533,18.661076863606755,18.588420510292057,163.77845668792727,185.88416608174632,205.97338612874344,3
5134,Campamento,8820,8961,9203,3,0,0,6.49,20.22,26.0,47.3,0.3,0.0,13.07,14.36,28.43,37.02,1.04,24.7,0.28,51.6,48.4,32.32,64.87,25.7023,36.6161,2.906,0.1937,0.0,0.0,0.005,10.945,5134,-75.278004329375,7.011732979985,0.057692307692307696,0.0,0.0,23.13331254323323,22.528972466786694,22.41919946670532,173.22052987416578,201.16699600219738,221.49201138814297,3
5138,Cañasgordas,15298,15296,15523,26,6,1,6.36,16.75,24.44,52.45,0.34,0.02,6.99,10.24,43.16,33.95,5.68,23.46,0.71,50.62,49.38,28.09,74.13,52.1374,25.9287,0.784,0.0187,0.0187,0.0,0.002558,11.161125,5138,-76.03636905093333,6.837853500033333,0.5,0.11320754716981132,0.0196078431372549,20.337237517038982,19.732962290445958,19.673869212468464,159.11577447255468,186.29442087809238,201.20264498392734,2
5142,Caracolí,4934,4695,4582,5,3,3,5.55,14.12,21.05,59.29,0.3,0.0,11.55,10.26,39.93,42.27,1.87,22.18,2.09,50.59,49.41,12.33,61.02,33.0319,34.317,1.5231,0.0476,0.0,0.0,0.003846,5.711538,5142,-74.7574542879,6.40985175825,0.09615384615384616,0.05660377358490566,0.058823529411764705,26.14833784103392,25.546796878178927,25.444026231765744,182.24386914571133,200.24887720743823,228.3310915629069,3
5145,Caramanta,5204,4867,4743,1,0,0,4.33,15.2,20.17,60.3,0.35,0.02,11.15,8.15,40.08,36.71,2.44,27.69,1.1,50.32,49.68,14.4,64.4,19.6532,35.0674,16.2813,0.0,0.0482,0.0,0.011628,17.511627999999998,5145,-75.61926343703333,5.558233532630001,0.019230769230769232,0.0,0.0,17.110557794570916,16.49276268482206,16.45471990108491,159.87167421976713,180.42176564534518,198.3852678934733,2
5147,Carepa,47085,47252,47932,101,15,93,8.05,20.3,29.99,41.66,24.76,0.15,4.1,7.72,51.88,33.77,3.33,19.17,0.61,50.05,49.95,14.24,65.81,45.6225,31.0626,2.9144,0.1739,0.006,0.012,0.007895,36.342105,5147,-76.67180998527478,7.800327244034031,1.9423076923076923,0.2830188679245283,1.8235294117647058,28.201165994008374,27.661416451136276,27.60701100031535,181.9136877059935,214.07170104980457,211.6086711883545,3
5148,El Carmen de Viboral,55075,57093,59416,5,1,0,6.7,14.56,26.74,52.0,0.29,0.05,13.31,5.81,57.15,44.87,2.44,16.71,3.39,49.51,50.49,4.45,44.67,4.4725,36.5802,32.3181,0.9832,0.3064,0.0777,0.002232,36.716518,5148,-75.33618240288,6.070890426351999,0.09615384615384616,0.018867924528301886,0.0,15.554079691569024,14.92557144165039,14.86466284592945,179.91095606486002,202.1025835673015,227.8760153452556,3
5150,Carolina,4133,4000,3954,1,0,1,3.86,11.85,21.51,62.79,1.14,0.24,6.76,6.67,57.43,35.0,6.46,22.67,4.34,49.24,50.76,9.72,52.63,23.3661,46.6744,1.5616,0.1157,0.0578,0.4049,0.005,6.3,5150,-75.2831680463,6.72597625966,0.019230769230769232,0.0,0.0196078431372549,18.810805082321174,18.20125627517699,18.098760485649105,168.573353767395,194.41152381896975,216.2605050404866,3
5154,Caucasia,90925,90361,90213,57,16,95,8.44,19.63,26.94,45.0,4.07,1.27,5.0,8.24,52.03,35.8,4.8,17.46,0.42,48.43,51.57,11.07,59.36,44.4855,24.9878,8.3478,0.7022,0.0621,0.0196,0.010631,17.38129,5154,-75.04057060282666,7.935771842243333,1.0961538461538463,0.3018867924528302,1.8627450980392157,29.061873674392718,28.493666172027563,28.363233725229907,172.35876671473181,202.5265576044718,210.61948251724243,3
5172,Chigorodó,56345,56584,57375,16,18,134,8.17,20.39,28.91,42.54,49.56,4.0,6.27,9.73,51.04,33.22,5.84,19.42,0.53,48.39,51.61,16.38,64.79,48.7042,31.6567,1.1655,0.0562,0.0102,0.0051,0.004934,27.006579,5172,-76.65135962363999,7.588526552857999,0.3076923076923077,0.3584905660377358,2.607843137254902,28.29273684819539,27.747460603713993,27.695767720540356,198.03486728668224,234.56198883056652,230.83959007263172,3
5190,Cisneros,10251,9934,9775,82,43,4,5.5,14.31,22.44,57.76,1.23,0.07,11.59,5.25,52.12,33.7,5.69,23.7,2.38,47.92,52.08,26.37,56.86,27.0496,41.7004,8.2743,0.2024,0.0,0.0,0.0434779999999999,67.282609,5190,-75.0872051341,6.53776304826,1.5769230769230769,0.8113207547169812,0.0784313725490196,23.00855668385824,22.398270527521774,22.29527560869852,186.4108921686808,210.77174504597983,238.40803527832023,3
5197,Cocorná,16722,15960,15444,38,2,1,7.14,16.13,23.07,53.67,0.58,0.0,16.43,10.05,38.57,32.27,5.91,24.39,1.31,49.4,50.6,19.55,53.6,17.4921,30.2424,7.3294,0.0351,0.0117,0.0,0.004762,24.17619,5197,-75.16100996990001,6.042774491683333,0.7307692307692307,0.03773584905660377,0.0196078431372549,23.318960984547942,22.69430828094482,22.626671950022374,182.2798252105712,203.43779754638672,228.27549552917466,3
5206,Concepción,4946,4812,4797,1,0,0,5.49,14.13,21.27,59.12,0.3,0.0,7.09,7.7,41.74,39.94,1.22,25.94,1.55,51.4,48.6,25.01,44.87,12.2434,30.4965,7.6148,0.0373,0.0373,0.0,0.005988,8.275449,5206,-75.257601243,6.39435397644,0.019230769230769232,0.0,0.0,19.739652395248417,19.106217781702668,19.016186038653057,172.6427408854167,192.64910252888998,219.04138946533203,3
5209,Concordia,21039,21058,21377,9,2,0,5.64,15.17,24.56,54.64,0.39,0.0,12.11,15.41,34.94,34.25,1.24,25.82,0.63,49.84,50.16,28.1,66.9,18.2254,44.6849,11.7775,0.7697,0.0871,0.0436,0.0043289999999999,22.787879,5209,-75.890069062175,6.05316695977,0.17307692307692307,0.03773584905660377,0.0,21.555626074473054,20.973421216011058,20.90538744131725,154.43514633178714,178.24319140116393,193.91399669647228,2
5212,Copacabana,75706,76394,77884,283,38,14,4.6,11.72,25.55,58.13,0.89,0.07,15.6,3.37,67.44,44.25,4.36,14.79,6.3,48.49,51.51,3.62,29.21,4.229,54.6194,27.1597,1.1061,0.5313,0.3795,0.0571429999999999,350.728571,5212,-75.504167519525,6.33869530854,5.4423076923076925,0.7169811320754716,0.27450980392156865,21.977507591247576,21.370237549146015,21.279084324836735,170.35406907399494,191.55899937947592,217.01911449432373,3
5234,Dabeiba,22588,22653,23044,6,6,3,10.12,22.6,26.28,41.0,0.51,20.9,11.03,18.3,32.84,33.01,2.56,22.09,0.38,50.83,49.17,41.07,74.91,47.5026,14.3959,9.1266,0.1046,0.0,0.0,0.000531,3.435475,5234,-76.17617245204445,7.011823133385556,0.11538461538461539,0.11320754716981132,0.058823529411764705,23.317768573760976,22.739165862401318,22.698171774546307,195.81596310933443,234.05999056498203,242.19883219401035,3
5237,Donmatías,18575,18648,18902,3,2,2,6.06,15.49,26.65,51.79,0.45,0.0,4.08,4.01,53.27,44.09,3.86,17.36,1.17,46.19,53.81,7.33,43.06,3.1649,50.776,16.2203,0.8825,0.0456,0.0,0.01105,25.922652,5237,-75.29592939732,6.51742503097,0.057692307692307696,0.03773584905660377,0.0392156862745098,17.500246604283657,16.884686827659593,16.792130112648,156.20622412363693,178.63195864359542,199.7259019215901,2
5240,Ebéjico,11989,11978,12158,46,3,3,4.51,13.74,19.84,61.92,0.45,0.02,19.48,12.07,35.36,36.42,1.98,27.63,2.18,51.12,48.88,6.73,63.41,42.1761,21.4246,5.0103,0.2991,0.2804,0.2056,0.004255,16.195745000000002,5240,-75.7614168518,6.310618127075,0.8846153846153846,0.05660377358490566,0.058823529411764705,23.18474523226421,22.608095884323134,22.514497518539432,161.07675838470456,185.7515379587808,200.9509210586547,2
5250,El Bagre,49274,50497,51862,66,102,89,9.0,23.44,27.06,40.5,4.65,1.85,2.14,11.77,42.67,33.22,4.69,19.13,0.26,50.06,49.94,21.29,62.86,54.1036,13.8352,1.3777,0.0469,0.0117,0.0117,0.001919,8.172744999999999,5250,-74.72751357456667,7.594359295904167,1.2692307692307692,1.9245283018867925,1.7450980392156863,28.56199057896932,28.00363572438557,27.849251826604217,231.0302279790243,267.8968143463136,290.14353624979645,3
5264,Entrerríos,10541,10764,11159,1,0,0,6.75,15.7,26.24,51.32,0.35,0.08,10.18,3.68,53.97,42.89,1.6,20.17,1.59,49.98,50.02,11.19,44.77,2.7899,20.1945,39.6724,7.0386,0.2304,0.256,0.013699,12.598174,5264,-75.517805693,6.56648234736,0.019230769230769232,0.0,0.0,16.58686021963756,15.975727478663126,15.882736682891844,152.712280591329,176.38617833455405,195.94685204823816,2
5266,Envigado,213188,221252,228848,437,77,43,3.82,9.34,21.76,65.09,0.66,0.05,5.69,1.47,77.33,46.62,4.31,11.58,9.37,46.11,53.89,0.93,11.07,0.4956,18.5325,31.0878,16.9634,20.6205,1.6219,0.525641,937.884615,5266,-75.54244390327142,6.155391678557619,8.403846153846153,1.4528301886792452,0.8431372549019608,18.760121941566474,18.158016920089732,18.077721556027736,161.11389668782553,182.4320589701335,203.255065282186,2
5282,Fredonia,23743,23873,24408,183,10,2,4.56,12.92,21.18,61.35,0.85,0.08,9.34,8.43,44.73,39.58,3.5,23.56,3.04,50.11,49.89,12.5,60.1,25.0738,28.7026,15.7504,0.623,0.7542,0.1858,0.008097,26.639676,5282,-75.69019547065,5.901031009193333,3.519230769230769,0.18867924528301888,0.0392156862745098,21.267317771911618,20.663867314656557,20.609440167744975,166.2173767089843,190.11985905965173,208.44382286071766,3
5284,Frontino,20674,20554,20739,13,30,13,9.13,19.71,25.18,45.99,0.52,18.91,8.44,14.54,36.49,34.34,2.39,23.3,0.83,50.48,49.52,22.69,66.92,25.4799,29.9906,12.3641,0.8994,0.0134,0.0268,0.0008089999999999,4.774272,5284,-76.19887537078334,6.762563735725,0.25,0.5660377358490566,0.2549019607843137,21.984491030375167,21.393279751141876,21.358318885167435,194.28242969512925,231.6737677256268,239.88187853495288,3
5306,Giraldo,5280,5364,5544,1,0,1,7.26,17.62,24.8,50.33,0.3,0.0,6.27,6.49,42.83,36.86,3.99,21.73,0.2,51.51,48.49,9.42,64.63,51.0757,14.2857,0.4733,0.0,0.0,0.0,0.010417,16.15625,5306,-75.95054881095,6.6875785880350005,0.019230769230769232,0.018867924528301886,0.0,19.76971876621246,19.167374968528744,19.096172451972944,159.6260811487835,187.90781084696462,200.53564262390137,2
5308,Girardota,48911,49965,51662,69,2,2,4.95,12.39,25.78,56.88,6.07,0.09,11.54,4.13,63.62,41.4,4.54,17.7,4.83,49.15,50.85,8.29,38.02,5.5751,66.9736,9.6378,0.8873,0.3739,0.1953,0.051282,194.871795,5308,-75.44511740791667,6.383933153890833,1.3269230769230769,0.03773584905660377,0.0392156862745098,22.640135367711384,22.023794293403625,21.93288715680441,170.0066099166871,191.55499394734704,218.46911621093759,3
5310,Gómez Plata,9792,9662,9753,3,2,0,5.1,14.61,20.8,59.49,0.8,0.01,15.59,6.53,44.08,36.17,5.08,23.7,2.94,50.38,49.62,15.91,50.67,27.0777,37.1314,0.8713,0.067,0.0,0.0223,0.002778,8.252778,5310,-75.197160042775,6.7416114535775,0.057692307692307696,0.03773584905660377,0.0,22.191751480102553,21.58554498354593,21.479685624440517,177.84125550587964,204.47826385498058,229.30252075195324,3
5313,Granada,10544,10159,10117,6,0,0,8.0,17.62,23.36,51.02,1.78,1.27,16.22,8.81,36.43,36.31,3.46,22.66,1.1,49.6,50.4,5.76,43.08,17.9675,13.2844,16.5002,0.0312,0.0,0.0156,0.010929,17.606557000000002,5313,-75.1237820524,6.118218108010001,0.11538461538461539,0.0,0.0,20.185702919960022,19.55618906021119,19.4818977912267,190.0041936238606,212.69458961486805,239.3510138193767,3
5315,Guadalupe,6424,6435,6560,3,1,0,5.94,16.12,25.57,52.37,0.53,0.09,9.57,10.84,39.82,33.73,4.37,26.06,0.4,51.01,48.99,31.73,69.25,37.6575,39.2441,2.2865,0.14,0.0,0.0,0.0114939999999999,20.045977,5315,-75.21468530071999,6.826078907714001,0.057692307692307696,0.018867924528301886,0.0,21.651628414789837,21.046210447947207,20.938462773958857,181.14596017201737,211.49667485555005,236.55834770202645,3
5318,Guarne,48944,51574,55121,10,1,0,5.27,11.83,25.53,57.37,0.45,0.09,5.2,4.22,60.41,41.98,3.27,18.81,3.86,49.56,50.44,6.46,34.15,6.5078,28.8167,23.8176,1.5702,0.3074,0.0378,0.033113,86.695364,5318,-75.44058699216667,6.239325403066666,0.19230769230769232,0.018867924528301886,0.0,17.877302090326932,17.25978891054789,17.17135588328044,164.22934150695798,184.41684532165516,206.49632326761875,3
5321,Guatapé,7864,8124,8363,23,2,0,5.87,13.21,24.3,56.62,0.41,0.06,4.82,2.74,59.48,42.58,2.3,20.08,4.28,48.62,51.38,1.74,32.98,2.0103,51.5349,11.1926,0.5433,0.1902,0.1087,0.014493,35.362319,5321,-75.1565250975,6.235554132855,0.4423076923076923,0.03773584905660377,0.0,19.26231559117635,18.62550993760427,18.541236201922107,173.0336796442668,191.028470993042,218.9895896911619,3
5347,Heliconia,5777,5508,5451,41,0,2,4.93,13.25,20.98,60.84,0.45,0.13,19.56,9.37,37.01,36.38,3.78,25.8,2.04,52.33,47.67,4.17,56.56,24.9904,35.2086,1.9135,0.0383,0.0,0.0383,0.0085469999999999,14.196581,5347,-75.74377519876,6.198064193438,0.7884615384615384,0.0,0.0392156862745098,19.833040038744603,19.257468422253933,19.16455749670665,170.79493713378915,197.97602526346827,215.3197491963705,3
5353,Hispania,5366,5380,5469,60,4,2,5.84,14.89,23.47,55.8,0.79,0.22,15.56,9.56,42.53,36.46,6.08,17.68,2.42,49.78,50.22,17.55,59.73,10.7222,50.5095,13.0261,0.0,0.0,0.0443,0.017241,29.137931,5353,-75.906590966,5.79946280832,1.1538461538461537,0.07547169811320754,0.0392156862745098,23.981862386067707,23.381254434585568,23.340564330418903,152.17332140604663,172.24005889892592,191.94344997406017,2
5360,Itagüí,269966,272206,276744,2857,120,54,4.83,11.21,25.94,58.02,0.83,0.12,9.03,2.54,68.91,45.17,4.96,14.25,5.7,47.7,52.3,1.27,24.43,6.46,33.6707,43.6206,3.9533,0.0438,0.0374,0.941176,4876.176471,5360,-75.61270587524287,6.1869766337900005,54.94230769230769,2.2830188679245285,1.0392156862745099,21.84219137827556,21.246857126553838,21.16135342915854,171.9253177642821,195.36077880859375,219.69897079467788,3
5361,Ituango,26534,26589,27074,103,3,0,5.93,15.82,27.19,51.05,0.59,2.01,6.83,11.92,41.9,24.71,3.57,18.25,0.3,61.07,38.93,28.54,64.64,42.6116,17.0286,2.9714,0.0133,0.0133,0.0,0.000426,2.368017,5361,-75.716937114975,7.23494393168625,1.9807692307692308,0.05660377358490566,0.0,20.960782051086415,20.356463670730594,20.268811702728275,177.40972518920913,213.83547019958507,224.96072705586755,3
5364,Jardín,14286,14309,14518,14,0,4,5.56,14.01,23.23,57.2,0.49,10.98,10.89,6.71,48.05,40.88,2.16,23.26,2.52,50.01,49.99,14.59,63.42,17.0524,43.2369,15.2622,0.3797,0.0542,0.0181,0.004464,19.15625,5364,-75.83753281645,5.600632728045,0.2692307692307692,0.0,0.0784313725490196,15.790547768274934,15.178438067436206,15.143281737963349,157.4947633743287,180.33889865875253,197.90837796529138,2
5368,Jericó,13710,13536,13640,22,5,1,4.85,12.3,21.15,61.69,0.21,0.02,9.41,7.45,48.72,37.08,4.12,24.47,2.14,49.57,50.43,9.76,55.62,10.1435,42.9791,19.0264,0.8728,0.0388,0.0776,0.005181,19.735751,5368,-75.7791932656,5.792403212503333,0.4230769230769231,0.09433962264150944,0.0196078431372549,18.648283600807186,18.038532296816502,17.9991440375646,161.76683108011875,182.32353337605798,201.54616641998282,2
5376,La Ceja,58995,62209,64889,4,0,0,5.31,12.79,25.56,56.34,0.34,0.03,4.95,3.34,61.57,45.0,2.87,15.73,4.99,48.51,51.49,4.35,30.07,1.1701,15.5788,51.9188,7.0967,2.2057,0.0583,0.061069,133.709924,5376,-75.42592745195,6.027351995113334,0.07692307692307693,0.0,0.0,16.097642223040275,15.48134454091389,15.419278264045717,158.081486384074,175.4169979095459,197.30932648976628,2
5380,La Estrella,65281,69425,71545,223,12,2,4.87,11.57,25.48,58.07,0.54,0.02,9.15,2.99,68.36,47.91,3.81,13.69,5.26,48.36,51.64,2.32,27.0,7.2259,43.8373,24.756,10.612,0.7858,0.1256,0.085714,620.371429,5380,-75.63974084834,6.134534626878,4.288461538461538,0.22641509433962265,0.0392156862745098,19.889533003171277,19.297468423843384,19.215668559074416,165.86027908325215,189.01887575785315,208.19855022430417,3
5390,La Pintada,7936,8003,8114,53,17,1,6.02,14.43,28.33,51.22,1.09,0.11,10.62,10.2,48.7,43.49,4.53,19.12,1.12,50.16,49.84,3.59,60.49,31.2677,36.5838,6.2913,1.9503,1.101,0.1258,0.018182,45.654545,5390,-75.6038238614,5.733995701285,1.0192307692307692,0.32075471698113206,0.0196078431372549,25.969441254933685,25.355176210403453,25.316511392593387,151.0073060989379,169.3701801300049,189.23612531026205,2
5400,La Unión,20680,20958,21475,4,0,1,6.03,15.02,26.64,52.31,0.24,0.01,14.28,6.07,47.14,46.36,1.66,17.37,1.79,49.7,50.3,11.82,58.71,7.0302,57.9524,15.9182,0.1203,0.0401,0.0,0.010101,30.979798,5400,-75.34865570133333,5.94652376101,0.07692307692307693,0.0,0.0196078431372549,15.879448493321739,15.258246302604668,15.20052031675975,165.8078397115071,181.99890963236496,209.7626031239828,3
5411,Liborina,9843,9842,10028,39,83,4,5.73,16.68,21.34,56.26,0.43,0.01,17.29,8.82,40.63,32.13,1.22,24.66,1.41,51.49,48.51,7.08,51.46,28.4526,24.1265,5.1581,0.0475,0.0,0.0238,0.004608,11.737327,5411,-75.78970004227777,6.7232951601133335,0.75,1.5660377358490567,0.0784313725490196,20.530182997385666,19.912445545196523,19.82680443922679,167.58989238739008,194.1239554087323,211.8435662587485,3
5425,Maceo,8090,8108,8221,17,5,13,6.84,17.31,23.0,52.86,0.71,0.11,10.5,10.07,40.78,39.73,2.66,21.61,0.89,49.98,50.02,21.98,62.62,31.7972,35.9159,2.3618,0.0288,0.0576,0.0,0.00232,5.807425,5425,-74.7428328637,6.53155711749,0.3269230769230769,0.09433962264150944,0.2549019607843137,25.33360759417216,24.741268157958995,24.629064798355106,191.135410308838,214.47334035237634,245.66913159688303,3
5440,Marinilla,61174,62693,64645,6,0,1,6.44,14.26,26.9,52.39,0.33,0.07,7.89,3.49,58.22,42.56,3.23,17.75,3.13,49.28,50.72,0.93,42.22,4.2282,25.3548,48.2817,1.5156,0.111,0.0386,0.0434779999999999,144.104348,5440,-75.3394598367,6.17404951538,0.11538461538461539,0.0,0.0196078431372549,18.336129228274014,17.702210108439136,17.62278298536937,161.323694229126,178.41614596048987,203.22632185618076,2
5467,Montebello,6802,6650,6680,19,1,1,4.97,13.93,20.71,60.4,0.22,0.12,18.87,8.93,35.91,36.76,1.51,29.08,1.11,51.13,48.87,24.18,54.3,31.2825,17.9376,7.3946,0.0289,0.0,0.0289,0.011628,23.511628,5467,-75.533045735475,5.9214056894575,0.36538461538461536,0.018867924528301886,0.0196078431372549,18.530320803324383,17.919361631075542,17.860941489537563,166.1578057607015,186.023453394572,208.0288769404093,3
5475,Murindó,4553,4672,4911,0,0,2,13.4,28.78,26.5,31.32,52.0,41.47,6.79,21.37,26.26,25.74,1.31,19.73,0.11,50.88,49.12,86.4,80.67,15.8313,2.0684,0.1591,0.0796,0.0796,0.0796,0.000741,0.835434,5475,-76.82961553822,6.874142512018,0.0,0.0,0.0392156862745098,29.03549456596374,28.44734287261964,28.429873625437438,305.84410444895406,367.3558184305826,359.8836199442546,3
5480,Mutatá,12895,13451,13991,13,1,28,9.72,23.12,27.28,39.88,9.42,16.78,8.6,15.95,36.46,34.2,2.49,19.72,0.23,50.79,49.21,35.86,65.16,46.0084,14.1748,0.3982,0.0199,0.0398,0.0,0.000904,3.279385,5480,-76.49920897576666,7.312056084233333,0.25,0.018867924528301886,0.5490196078431373,28.090370575586945,27.531842072804753,27.479801734288525,246.7717243830363,294.533753712972,289.35076395670575,3
5483,Nariño,10179,10087,10153,1,0,0,6.32,17.78,22.79,53.1,0.31,0.02,12.0,12.61,32.13,36.49,1.88,26.0,0.49,51.32,48.68,35.52,62.7,19.6111,42.9689,1.8497,0.0,0.0,0.0237,0.003195,9.057508,5483,-75.18481471845,5.566074808350001,0.019230769230769232,0.0,0.0,21.253322402636197,20.63138258457185,20.589259982109066,177.8394034703571,197.3247928619386,221.78107452392567,3
5490,Necoclí,41678,41663,42281,93,255,183,8.98,23.66,26.63,40.72,47.81,3.89,6.63,11.57,43.24,27.9,4.45,22.55,0.23,49.7,50.3,45.63,68.74,62.2176,9.6176,0.6663,0.0579,0.0072,0.0,0.00147,7.847171,5490,-76.66763597717058,8.465273419485294,1.7884615384615385,4.867924528301887,3.5294117647058822,27.621915419896443,27.10945908228555,27.028425852457676,147.72539027531948,166.3650687535603,168.3414435386657,2
5495,Nechí,22598,24221,25790,4,7,207,8.96,24.2,25.63,41.22,12.37,0.39,5.12,10.94,40.36,35.15,2.52,19.8,0.68,51.4,48.6,33.62,75.87,72.8438,2.3411,0.1479,0.0,0.0,0.0,0.002188,7.182713000000001,5495,-74.8162084175,7.990361043076667,0.07692307692307693,0.1320754716981132,4.0588235294117645,28.019124587376897,27.46578311920166,27.308491071065248,230.51356951395664,262.82839552561455,274.88432629903167,3
5501,Olaya,3083,3077,3127,8,4,0,5.77,15.41,21.96,56.86,1.18,0.04,9.86,10.85,41.89,36.56,2.83,24.79,0.92,50.97,49.03,5.61,55.9,27.724,28.7556,1.5474,0.5803,0.1289,0.0,0.011111,10.677778,5501,-75.79104812525,6.60256146621,0.15384615384615385,0.07547169811320754,0.0,23.935618082682296,23.330207268397018,23.24217907587685,169.32291539510092,196.96214167277017,210.53738943735755,3
5541,Peñol,20076,20463,21049,4,0,0,6.2,13.84,24.34,55.62,0.41,0.07,12.19,4.48,49.84,39.86,3.99,22.12,1.74,48.66,51.34,4.09,45.36,3.7169,49.2922,3.7747,0.4622,0.0867,0.0289,0.006993,42.461538,5541,-75.2428178132,6.21945021233,0.07692307692307693,0.0,0.0,19.7329651514689,19.089909553527832,19.007777134577434,178.18411350250258,195.29919815063454,225.04154936472582,3
5543,Peque,7861,7929,8097,58,4,1,8.06,19.08,26.43,46.43,0.81,0.0,16.04,15.61,31.81,38.67,1.12,23.14,0.18,52.96,47.04,3.08,62.09,50.7544,13.4831,0.8989,0.0,0.0,0.0,0.002551,5.390306,5543,-75.897113102125,7.00773617009,1.1153846153846154,0.07547169811320754,0.0196078431372549,19.592843850453683,18.98982723553976,18.918017268180847,160.55103333791095,191.51641082763652,202.15701421101892,2
5576,Pueblorrico,8681,8585,8664,3,2,1,5.86,15.41,22.94,55.79,0.4,2.32,18.63,11.29,37.81,35.21,2.58,26.62,0.89,50.11,49.89,29.05,64.31,32.4199,36.9099,6.1737,0.066,0.0,0.0,0.011628,27.011628,5576,-75.8397134748,5.79168858961,0.057692307692307696,0.03773584905660377,0.0196078431372549,21.15334614117941,20.55082857608797,20.508966803550724,154.37595589955657,174.6971384684243,194.35975519816088,2
5579,Puerto Berrío,38580,38763,39314,53,35,30,6.42,16.38,25.63,51.57,3.96,0.16,8.31,8.59,50.38,39.18,4.72,17.66,1.36,50.08,49.92,5.35,54.34,56.0545,18.9757,3.8596,0.1275,0.0403,0.0134,0.0067569999999999,10.164696,5579,-74.53977305659231,6.493115014834615,1.0192307692307692,0.6792452830188679,0.5686274509803921,28.13980213801065,27.54841796557109,27.43213454882304,188.41312313079857,208.38185373942068,237.07284037272134,3
5585,Puerto Nare,14370,14208,14380,11,6,6,6.01,17.18,21.28,55.53,3.01,0.16,14.74,9.14,46.66,34.7,5.91,20.84,1.22,50.55,49.45,10.32,59.77,34.2397,35.7638,2.7191,0.0,0.0,0.0173,0.001515,6.480303,5585,-74.67388028084444,6.150094520462222,0.21153846153846154,0.11320754716981132,0.11764705882352941,27.929425636927277,27.32888317108154,27.236977895100896,180.9070256551106,197.36764780680338,229.39506467183438,3
5591,Puerto Triunfo,16529,17081,18055,13,8,1,6.83,16.32,29.17,47.68,0.92,0.05,8.14,8.03,47.76,36.86,4.13,16.98,0.25,55.08,44.92,5.21,64.48,35.5222,43.0127,1.8644,0.429,0.198,0.0165,0.0,13.905817,5591,-74.70331182813,5.932650447076,0.25,0.1509433962264151,0.0196078431372549,28.753291209538798,28.162080208460484,28.08428104718527,167.81574122111002,181.95200856526682,212.570332845052,3
5604,Remedios,26222,27182,28415,42,8,1,8.11,19.98,27.76,44.15,0.53,0.43,4.81,10.0,40.51,37.52,1.71,21.15,0.41,49.95,50.05,21.45,59.85,44.0463,22.1805,4.5376,0.0406,0.0203,0.0102,0.001008,3.623678,5604,-74.64154873375,7.03768152357,0.8076923076923077,0.1509433962264151,0.0196078431372549,26.45928732554116,25.878059228261304,25.742902914683025,200.4297968546551,227.33676783243808,260.65753777821857,3
5607,Retiro,22166,22697,23514,3,0,0,4.8,11.95,22.57,60.68,0.29,0.01,4.6,4.0,62.78,47.1,2.29,15.11,6.9,49.01,50.99,7.51,28.98,3.4338,16.9794,29.9361,7.1372,8.9738,0.7686,0.007326,24.92674,5607,-75.4903140087,6.096352238948571,0.057692307692307696,0.0,0.0,16.61271150906881,16.00405267874398,15.932959000269568,151.86003621419272,170.63185310363775,190.18740685780844,2
5615,Rionegro,125285,130128,135465,0,1,0,5.01,11.88,26.03,57.08,0.62,0.04,3.68,2.82,66.2,42.29,4.25,15.53,5.39,48.99,51.01,0.78,28.78,3.0454,21.7203,40.2561,12.3334,2.2704,0.4697,0.188776,195.841837,5615,-75.41672389072963,6.14027633850074,0.0,0.018867924528301886,0.0,18.371800184249874,17.74961396058401,17.67232807477316,163.64939594268793,182.8167260487875,204.8447891871135,3
5628,Sabanalarga,8879,8907,9032,4,2,0,7.76,18.73,26.98,46.53,1.4,0.05,9.19,8.9,36.4,29.26,4.75,24.28,0.2,52.38,47.62,13.74,52.04,38.346,13.398,1.4322,0.0231,0.0,0.0,0.003906,9.367188,5628,-75.78986469058,6.877691569708,0.07692307692307693,0.03773584905660377,0.0,24.53360605239868,23.91939155260722,23.840029319127407,181.84581041336068,212.14901510874427,225.918342590332,3
5631,Sabaneta,68224,76937,82375,104,20,10,4.76,9.27,24.0,61.98,0.72,0.06,6.17,1.7,76.86,50.65,3.78,11.87,6.71,46.57,53.43,0.21,9.98,0.3432,18.911,38.3468,26.0606,0.4586,0.0461,0.733333,1954.8,5631,-75.61216003868888,6.142006814897778,2.0,0.37735849056603776,0.19607843137254902,20.7973270813624,20.200242400169376,20.119194785753894,167.38398329416916,188.49441019694007,212.76952743530273,3
5642,Salgar,17974,17983,18258,22,1,0,5.92,16.73,24.64,52.71,0.62,0.04,11.66,13.94,33.23,41.62,0.82,25.43,0.44,50.68,49.32,37.62,72.46,47.5677,23.3244,9.2061,0.0951,0.0,0.0,0.004785,12.454545,5642,-75.9531684844,5.969195391748,0.4230769230769231,0.018867924528301886,0.0,21.726348241170246,21.140902916590374,21.085021456082675,165.24267609914156,188.41743596394852,207.3255182902017,3
5647,San Andrés de Cuerquía,7090,7115,7235,4,1,0,7.86,18.54,26.26,47.34,0.71,0.02,3.42,7.23,40.44,34.0,3.89,25.56,0.38,51.26,48.74,32.33,58.35,48.0127,17.0243,1.02,0.1407,0.0,0.0352,0.00565,10.926554,5647,-75.6747339859,6.91680279924,0.07692307692307693,0.018867924528301886,0.0,18.97084800402325,18.355743726094566,18.266268690427122,143.81337801615408,168.9120508829753,190.78608322143555,2
5649,San Carlos,15985,16004,16247,26,7,8,6.26,16.67,22.96,54.11,0.32,0.07,10.52,8.52,44.11,34.79,3.4,23.02,1.06,50.79,49.21,5.22,55.11,33.8448,20.727,9.2819,0.088,0.0126,0.0126,0.002849,7.511396,5649,-74.93308390048571,6.1833901071728565,0.5,0.1320754716981132,0.1568627450980392,24.136962175369273,23.521337191263836,23.433620055516567,189.0592816670735,210.63737424214676,239.5546442667643,3
5652,San Francisco,5564,5567,5648,0,2,0,7.74,19.7,23.63,48.93,0.62,0.02,13.12,15.36,33.4,33.42,1.16,26.51,0.34,50.05,49.95,18.65,55.52,33.1039,24.3752,1.5936,0.0362,0.0,0.0,0.002688,4.696237,5652,-75.010607395875,5.9209627410375,0.0,0.03773584905660377,0.0,24.538803656895954,23.936373233795166,23.87568147977193,178.3213968276979,196.57789166768393,222.58288892110207,3
5656,San Jerónimo,14877,15012,15361,287,39,8,5.73,14.3,25.05,54.92,0.27,0.07,4.77,7.58,51.76,37.81,4.23,20.33,1.75,49.42,50.58,8.53,37.85,13.4328,28.5766,4.8902,1.7595,1.0921,0.3276,0.0064519999999999,27.16129,5656,-75.7270000843,6.44806585636,5.519230769230769,0.7358490566037735,0.1568627450980392,21.633176883061726,21.03832038243612,20.945806980133046,165.44990571339932,190.57807032267257,209.9598178863524,3
5658,San José de La Montaña,3478,3536,3646,0,0,0,6.2,20.22,27.51,46.07,0.95,0.0,4.91,5.62,47.29,38.62,1.25,21.41,0.68,48.24,51.76,14.98,56.89,16.0159,53.8645,2.7888,0.4781,0.1594,0.0,0.0078739999999999,7.330709,5658,-75.6833564182,6.85008880044,0.0,0.0,0.0,13.590874036153167,12.972644805908203,12.883777479330709,163.34476693471274,189.04452323913554,206.32420094807946,3
5659,San Juan de Urabá,19791,19788,20093,60,69,60,8.94,24.11,25.77,41.18,51.37,1.06,4.85,10.64,44.33,26.58,3.14,23.17,0.1,49.54,50.46,49.88,82.07,78.6636,4.6851,0.0614,0.0768,0.0154,0.0,0.004184,23.242678,5659,-76.55823402345,8.71607967972,1.1538461538461537,1.320754716981132,1.1568627450980393,27.73326134681702,27.21932872136433,27.137167612711593,123.13204844792688,137.9079632759093,140.21987771987904,1
5660,San Luis,13365,13057,12995,32,6,0,8.12,18.33,24.64,48.91,0.49,0.02,4.76,7.94,44.49,35.18,4.73,21.39,0.89,49.57,50.43,26.87,66.58,35.8941,39.9306,0.7161,0.0651,0.0217,0.0,0.002208,8.048565,5660,-75.01405916935,6.023148341625,0.6153846153846154,0.11320754716981132,0.0,22.063066800435394,21.447788794835407,21.37607304255168,196.6158091227214,217.51250267028794,246.54739824930832,3
5664,San Pedro de Los Milagros,21902,21720,21949,5,0,4,6.2,15.3,26.81,51.69,0.33,0.03,7.5,3.22,59.46,37.46,2.28,20.14,1.27,48.27,51.73,8.24,39.02,4.553,37.6701,21.404,0.7503,0.1399,0.1017,0.008734,22.545852,5664,-75.60159439764999,6.42767558043,0.09615384615384616,0.0,0.0784313725490196,16.279332399368293,15.672496358553573,15.580156962076826,155.3328663508098,178.20236905415854,197.20317522684738,2
5665,San Pedro de Urabá,30459,30480,30932,13,25,164,7.27,22.78,25.83,44.12,1.07,1.87,5.38,11.02,41.79,28.13,2.85,25.61,0.22,51.46,48.54,45.9,78.62,78.5813,4.5421,0.2541,0.0741,0.0106,0.0,0.004175,16.903967,5665,-76.31291738006,8.430863220486,0.25,0.5283018867924528,3.156862745098039,27.868068774541214,27.357087691624965,27.255308230717972,133.7209998766581,150.97516377766928,153.31011931101474,2
5667,San Rafael,15451,15470,15698,32,0,0,6.3,14.64,23.89,55.16,0.5,0.0,16.43,8.02,44.96,37.34,3.17,24.0,1.04,49.57,50.43,21.04,52.94,18.5051,40.5365,2.5919,0.0,0.0301,0.0,0.005525,11.972376,5667,-74.9546397009,6.32329007018,0.6153846153846154,0.0,0.0,24.21243651707968,23.591038703918457,23.497765938440953,184.7088098526001,204.81195386250806,233.7063541412352,3
5670,San Roque,21120,21175,21519,23,1,0,6.02,17.05,23.94,52.99,0.31,0.01,15.83,9.05,41.65,36.37,3.06,22.71,1.37,50.58,49.42,19.8,60.69,35.245,30.4969,3.0996,0.1161,0.0232,0.0,0.004535,13.897959,5670,-74.916860004475,6.4953146066025,0.4423076923076923,0.018867924528301886,0.0,23.879964828491225,23.272369146347042,23.169287602106717,188.40837033589682,211.83939997355142,240.25828965504977,3
5674,San Vicente Ferrer,20898,21429,22093,2,0,0,5.99,14.31,25.03,54.67,0.15,0.0,5.98,6.59,43.92,40.83,2.04,24.57,1.01,51.65,48.35,7.89,51.28,7.9876,37.3651,11.9502,0.1245,0.0311,0.0,0.00823,23.271605,5674,-75.2925352683,6.29672641533,0.038461538461538464,0.0,0.0,17.96080903212228,17.327670971552532,17.240626692771908,165.13095315297448,183.09922218322765,209.33687814076745,3
5679,Santa Bárbara,26271,26350,26784,304,33,15,4.45,13.7,22.11,59.74,0.42,0.03,8.03,7.94,45.6,39.2,2.4,24.89,2.63,49.69,50.31,10.02,58.15,11.8871,40.7501,19.2909,0.2149,0.0488,0.0293,0.005405,40.497297,5679,-75.57893018103333,5.918064470683333,5.846153846153846,0.6226415094339622,0.29411764705882354,21.66730586687724,21.0576487382253,21.00339512030283,165.20933437347404,186.53166961669922,207.05686314900723,3
5686,Santa Rosa de Osos,35196,35539,36318,2,4,0,6.88,16.25,27.53,49.35,0.45,0.04,4.07,4.99,50.57,38.27,2.2,21.12,0.95,49.99,50.01,20.03,50.23,10.9776,50.6234,6.6824,0.4257,0.038,0.0228,0.003727,11.37764,5686,-75.40480231018334,6.621645279375,0.038461538461538464,0.07547169811320754,0.0,15.463357766469327,14.849751075108834,14.753071188926691,165.69226137797037,190.18545850118008,211.9852730433145,3
5690,Santo Domingo,12156,12156,12394,4,13,1,5.72,14.68,23.81,55.78,0.54,0.03,13.16,7.99,42.67,33.21,2.85,22.07,1.39,51.91,48.09,28.0,55.43,19.8505,33.1936,5.0674,0.2187,0.0729,0.0,0.0036899999999999,12.177122,5690,-75.17015132184,6.527730880144,0.07692307692307693,0.24528301886792453,0.0196078431372549,19.88878921667736,19.267160097757973,19.170878291130066,171.1937532424927,192.61244773864735,219.53577391306564,3
5697,El Santuario,34058,34591,35422,2,1,1,7.81,16.92,25.16,50.11,0.2,0.01,4.62,5.29,49.1,39.39,2.19,20.39,1.56,47.59,52.41,4.35,49.66,9.9866,50.4095,12.4603,0.1755,0.0669,0.0084,0.013333,117.48,5697,-75.2654679804,6.13685720436,0.038461538461538464,0.018867924528301886,0.0196078431372549,17.45503290494283,16.819970687230427,16.748471697171524,163.3174896240234,180.47852643330884,204.6156476338706,3
5736,Segovia,37199,37380,37900,67,7,8,8.06,18.77,28.85,44.31,2.62,1.7,5.98,8.92,46.74,37.74,2.75,20.46,0.82,50.02,49.98,18.87,53.31,33.6175,28.813,5.819,0.0775,0.0211,0.0,0.002437,8.710804,5736,-74.75964507366,7.149707356372,1.2884615384615385,0.1320754716981132,0.1568627450980392,26.539088805516545,25.962605953216553,25.81571642557779,209.12097994486498,244.0728766123453,266.0213146209717,3
5756,Sonsón,35882,35859,36321,3,0,2,6.03,16.14,25.0,52.84,0.54,0.02,13.35,7.93,41.83,39.04,2.05,22.84,0.94,50.26,49.74,22.37,54.52,15.94,34.9608,15.3899,0.3301,0.1031,0.0069,0.002268,7.507181,5756,-75.01963182528,5.779856951499999,0.057692307692307696,0.0,0.0392156862745098,26.825595458348577,26.234970728556316,26.172427097956334,173.2221546173096,188.30635897318518,215.0143337249756,3
5761,Sopetrán,14748,14794,15053,37,4,6,5.55,13.99,23.85,56.61,12.19,0.02,5.99,6.85,50.12,41.49,2.23,22.98,1.88,50.22,49.78,7.17,45.47,21.6131,30.7372,5.9609,0.8066,0.5419,0.063,0.004484,21.632287,5761,-75.76025865093334,6.531804508016666,0.7115384615384616,0.07547169811320754,0.11764705882352941,24.056079546610505,23.45701241493225,23.365555365880326,164.12984991073617,187.8046334584553,206.49875354766837,3
5789,Támesis,16837,16330,16281,23,1,0,4.67,13.14,21.1,61.08,0.52,1.04,26.74,8.61,43.93,34.4,2.53,24.97,2.1,50.42,49.58,13.2,58.72,23.2243,27.1575,22.1582,0.6771,0.2161,0.2161,0.008163,21.220408,5789,-75.69721009243334,5.666612801826666,0.4423076923076923,0.018867924528301886,0.0,18.313509424527474,17.69970707098644,17.662055095036823,169.43543465932217,191.58915964762366,211.44681803385424,3
5790,Tarazá,26212,26387,26964,14,5,95,8.01,24.33,25.49,42.17,1.98,0.36,4.43,13.62,35.98,34.96,2.63,19.8,0.27,49.38,50.62,14.9,62.39,51.6971,10.9193,0.3297,0.0097,0.0097,0.0,0.000641,4.5410260000000005,5790,-75.38385643138572,7.541913600470001,0.2692307692307692,0.09433962264150944,1.8627450980392157,26.436878363291427,25.844452301661175,25.735938390096035,221.54083108901978,261.14937750498456,277.5449132919311,3
5792,Tarso,6516,6217,6184,5,4,2,5.69,13.51,26.19,54.62,0.34,0.0,14.83,13.26,41.29,36.52,2.88,24.88,1.04,50.17,49.83,27.2,62.58,27.7542,32.9661,11.6102,0.6779999999999999,0.0847,0.1271,0.008403,14.747899,5792,-75.82912433163334,5.846901374113333,0.09615384615384616,0.07547169811320754,0.0392156862745098,22.328901608784985,21.727772911389664,21.680008133252457,155.58172162373862,177.01448249816895,193.9922342300415,2
5809,Titiribí,11216,10895,10775,145,6,1,4.44,12.47,21.81,61.28,0.36,0.02,8.83,9.44,43.49,35.68,2.6,23.54,4.09,49.52,50.48,7.67,56.87,18.9575,42.7342,4.598,0.418,0.2213,0.5409,0.007042,19.542254,5809,-75.7777585523,6.0532044673175,2.7884615384615383,0.11320754716981132,0.0196078431372549,21.374760746955868,20.790125211079925,20.718705733617153,156.1182854970297,178.5681076049805,196.57028706868482,2
5819,Toledo,4881,4896,4993,2,1,2,7.12,19.88,24.22,48.78,0.61,0.24,19.7,11.46,39.03,26.77,11.28,22.21,0.24,53.0,47.0,14.73,62.3,42.9198,20.4735,3.2004,0.0438,0.0,0.0,0.007194,11.374101,5819,-75.70127928502501,7.0067803698075,0.038461538461538464,0.018867924528301886,0.0392156862745098,22.32234207789104,21.706543326377858,21.622392416000356,173.0645314852397,203.11009343465176,217.73581854502365,3
5837,Turbo,122661,122762,124552,100,33,242,8.84,22.5,28.53,40.13,63.41,2.03,3.76,8.54,50.5,27.97,5.51,20.04,0.39,48.34,51.66,30.47,63.27,62.7667,10.7496,2.605,0.0634,0.0101,0.0101,0.0029,11.450163,5837,-76.64794899064805,8.084799730950898,1.9230769230769231,0.6981132075471698,4.666666666666667,26.530448675155636,26.015409787495955,25.92471981048584,156.57632446289077,175.9717934926351,181.9701344172161,2
5842,Uramita,6781,6788,6888,13,0,0,7.47,19.29,24.85,48.4,0.8,1.69,12.45,13.29,34.83,35.54,1.67,24.7,0.2,51.71,48.29,35.93,66.82,50.6074,15.8625,0.7289,0.0694,0.0347,0.0,0.0042369999999999,8.669492,5842,-76.14201436735,6.878382619625,0.25,0.0,0.0,23.7799478371938,23.188071171442658,23.139148871103927,159.21732950210568,191.6232544581095,201.23869991302487,2
5847,Urrao,29633,29692,30127,8,1,1,7.84,18.43,25.79,47.95,4.12,5.95,16.61,13.74,38.34,39.15,2.39,20.32,0.96,49.97,50.03,22.62,66.05,23.6778,36.6885,14.2049,0.3053,0.0808,0.0,0.000391,3.482394,5847,-76.156168408,6.338245241669999,0.15384615384615385,0.018867924528301886,0.0196078431372549,19.532503207524634,18.963094989458714,18.90190402666727,189.36610666910804,223.99534098307296,234.62024052937838,3
5854,Valdivia,13598,13582,13801,66,7,4,7.91,20.95,27.47,43.66,0.76,0.02,6.35,14.41,32.32,32.65,3.28,23.84,0.13,50.31,49.69,35.01,75.31,54.3329,17.8035,1.6302,0.0215,0.0,0.0215,0.001835,6.981650999999999,5854,-75.36723167265001,7.2921363632825,1.2692307692307692,0.1320754716981132,0.0784313725490196,26.18127528826395,25.57864936192831,25.472667137781787,196.79108715057382,234.2462062835693,247.72932306925463,3
5856,Valparaíso,6744,6564,6498,192,20,3,5.08,12.48,21.49,60.95,0.28,5.3,9.15,9.59,46.05,39.94,3.2,23.55,1.93,50.78,49.22,7.11,60.71,22.8571,37.8571,7.0301,0.7895,1.6165,0.7143,0.007692,14.707692000000002,5856,-75.6244635468,5.6145548154,3.6923076923076925,0.37735849056603776,0.058823529411764705,24.755633910497025,24.139806350072234,24.101618846257526,147.1772263844808,164.9869499206542,182.5140110651652,2
5858,Vegachí,12323,11918,11810,6,6,0,6.15,18.42,26.54,48.89,0.86,0.4,11.79,10.71,41.61,35.19,3.41,21.95,0.66,49.69,50.31,13.61,67.08,33.3035,43.9204,0.5141,0.0671,0.0,0.0224,0.001953,6.976562,5858,-74.76003360829999,6.815672726253333,0.11538461538461539,0.11320754716981132,0.0,24.651646773020435,24.072169224421177,23.9429375330607,196.40132013956705,222.80363972981772,253.17332585652682,3
5861,Venecia,11417,11434,11602,63,9,1,3.85,12.91,21.96,61.28,0.44,0.08,13.24,10.34,46.27,41.37,3.74,21.48,3.66,49.25,50.75,5.98,51.09,17.349,32.3331,15.5405,1.7091,2.1264,1.093,0.007092,25.29078,5861,-75.74851374984,5.964275323478001,1.2115384615384615,0.16981132075471697,0.0196078431372549,22.591570933659867,21.995477040608733,21.93681796391805,158.98158899943036,180.2958971659342,199.25258286794028,2
5873,Vigía del Fuerte,7874,8523,9093,1,4,5,11.02,26.23,27.61,35.14,82.11,12.72,10.53,13.98,38.79,19.51,2.46,23.82,0.07,49.75,50.25,73.74,70.96,63.3273,0.2893,0.1808,0.0362,0.0,0.0,0.000562,1.228652,5873,-76.81823089581667,6.504903803275834,0.019230769230769232,0.07547169811320754,0.09803921568627451,28.752271095911656,28.178638219833374,28.156047185262043,383.91175333658856,465.2205200195311,472.49255371093733,3
5885,Yalí,7384,7447,7608,4,0,0,6.5,16.59,24.67,52.25,0.63,0.16,16.19,13.2,37.81,40.07,1.22,24.51,0.45,51.94,48.06,29.73,75.5,49.1538,26.7692,3.6538,0.1538,0.0385,0.0,0.002237,4.903803,5885,-74.84508031625,6.680989820735,0.07692307692307693,0.0,0.0,24.393419504165635,23.811808109283437,23.6888768672943,193.4109458923341,218.3902085622153,248.85857582092294,3
5887,Yarumal,40818,40952,41542,11,4,1,6.29,17.59,26.63,49.49,0.41,0.04,9.27,7.21,49.55,34.22,6.92,19.78,0.84,48.54,51.46,12.85,53.8,19.4582,34.7079,23.3484,0.3041,0.0141,0.0141,0.001381,15.433701999999998,5887,-75.45536835525,7.0303062552975,0.21153846153846154,0.07547169811320754,0.0196078431372549,16.8427771727244,16.233575661977117,16.133510669072457,161.42935911814368,189.25713539123532,207.35407288869214,2
5890,Yolombó,22217,22208,22538,107,11,6,5.94,17.11,23.2,53.75,0.56,0.03,10.08,8.82,40.17,38.48,2.43,23.18,1.09,51.03,48.97,33.45,63.19,26.6146,36.4399,6.3778,0.0689,0.023,0.0,0.002125,6.679065,5890,-75.000622512225,6.60219759624,2.0576923076923075,0.20754716981132076,0.11764705882352941,22.736288309097294,22.13430643081665,22.025726954142247,190.16766166687015,214.9350516001384,243.72806803385404,3
5893,Yondó,17256,18108,19040,18,7,6,9.43,19.9,25.51,45.16,3.76,0.13,3.46,9.25,43.33,30.34,7.61,20.96,0.36,51.41,48.59,18.21,61.74,51.5255,9.2052,1.1654,0.0917,0.0262,0.0131,0.0015949999999999,2.82084,5893,-74.05367410532143,7.006148975509285,0.34615384615384615,0.1320754716981132,0.11764705882352941,29.0539051691691,28.467533985773716,28.327646891276032,187.29967435201,208.7259610493978,243.75258191426596,3
5895,Zaragoza,24267,24282,24651,5,10,14,9.31,23.01,26.65,41.03,32.79,8.16,3.35,12.97,40.55,29.33,3.98,21.09,0.14,50.27,49.73,39.96,69.28,56.7945,9.9796,0.3652,0.0322,0.0215,0.0,0.00188,6.686089999999999,5895,-74.87602681371428,7.424698103915714,0.09615384615384616,0.18867924528301888,0.27450980392156865,29.027589639027898,28.45541834831238,28.31387448310851,237.03277715047193,274.6598110198974,295.82606252034515,3
8001,Barranquilla,1210233,1195887,1206319,640,684,1679,7.08,14.9,25.58,52.44,5.21,0.11,4.11,2.68,67.47,39.14,5.57,15.4,3.53,47.92,52.08,0.88,35.02,34.3151,18.3952,18.0855,8.8548,2.9528,2.551,3.433735,1794.650602,8001,-74.8132169683,10.9783195607,12.307692307692308,13.773584905660377,32.01960784313726,29.108635584513348,28.539364655812573,28.385198354721066,66.06776640315854,66.28180321554338,58.75017142295843,0
8078,Baranoa,59498,60523,62382,25,7,162,7.64,16.7,25.19,50.46,1.04,11.91,7.34,4.99,61.19,32.59,5.98,21.34,2.09,49.89,50.11,10.95,73.26,52.7984,25.0619,6.8870000000000005,0.1178,0.0471,0.0059,0.102362,118.488189,8078,-74.930868994875,10.794566335125,0.4807692307692308,0.1320754716981132,3.176470588235294,28.237683693567906,27.67153803507486,27.52570486068724,82.66684858997655,84.7376689712206,78.18432361880942,0
8137,Campo de La Cruz,21872,22242,22879,0,4,0,8.98,19.3,25.28,46.44,5.11,0.04,2.51,11.08,47.33,18.76,20.37,22.18,0.29,49.95,50.05,13.64,77.39,42.3482,21.8785,3.0769,0.1134,0.0,0.0162,0.272727,146.909091,8137,-74.85740033265,10.419866922050002,0.0,0.07547169811320754,0.0,29.370267629623427,28.80627806981403,28.640327612559002,92.65388262271883,100.25659843782591,91.1764577825864,0
8141,Candelaria,15085,15452,15982,2,3,1,8.84,19.75,25.81,45.6,47.12,0.19,6.35,14.64,44.3,26.91,12.53,19.03,0.36,50.93,49.07,11.26,86.54,74.8468,7.4821,0.0766,0.1277,0.0,0.0511,0.013986,23.867133,8141,-74.89026106766667,10.4725604199,0.038461538461538464,0.05660377358490566,0.0196078431372549,29.30561407407123,28.740871191024752,28.579000552495327,89.59973872701327,93.19963349898656,85.3562166591485,0
8296,Galapa,50213,56221,60708,73,39,136,8.82,17.84,26.66,46.68,0.83,12.62,2.23,4.22,61.97,31.45,8.55,18.91,1.38,50.09,49.91,3.49,64.07,67.4142,13.9807,8.1655,0.0127,0.0063,0.0253,0.0714289999999999,146.561224,8296,-74.89999239095,10.89715535195,1.4038461538461537,0.7547169811320755,2.6470588235294117,28.719278891881313,28.152091344197576,28.00348027547199,80.15626638631021,81.87417511641983,76.03607837359111,0
8372,Juan de Acosta,19532,20185,20999,6,3,49,7.78,16.5,25.85,49.87,13.5,0.54,4.89,7.6,54.05,33.43,6.81,21.05,1.08,51.62,48.38,9.07,75.67,54.0973,12.5694,7.9589,0.387,0.1009999999999999,0.0168,0.023622,36.732283,8372,-75.08943905371667,10.831953478733334,0.11538461538461539,0.05660377358490566,0.9607843137254902,28.594399690628055,28.031378110249836,27.893878380457576,80.30203890800475,81.33798365791642,75.94830101231734,0
8421,Luruaco,26909,27346,28175,10,13,5,9.11,19.36,25.82,45.71,76.55,0.18,6.08,10.8,49.65,28.85,9.22,20.74,0.35,49.96,50.04,13.03,78.06,80.5897,6.1274,0.2976,0.1217,0.0,0.0,0.012195,27.300813,8421,-75.17873404887,10.61650276078,0.19230769230769232,0.24528301886792453,0.09803921568627451,28.190606117248524,27.626268943150848,27.487922191619862,91.15256134668986,94.06089696288115,86.31548435489334,0
8433,Malambo,118412,122716,128203,81,22,157,8.52,18.21,27.45,45.83,0.54,6.28,5.25,4.95,59.55,32.98,6.39,19.36,1.33,49.63,50.37,4.56,58.62,75.9458,9.7408,0.6593,0.0756,0.006,0.0,0.083333,268.37037000000004,8433,-74.8239724394,10.847938753975,1.5576923076923077,0.4339622641509434,3.0588235294117645,28.94530224800108,28.376031319300335,28.221865018208813,82.50103811919682,81.4542660862207,77.20183766881627,0
8436,Manatí,18550,19061,19808,0,4,4,10.32,19.19,27.35,43.13,30.65,0.1,3.15,11.58,51.97,26.24,10.09,22.46,0.53,50.75,49.25,11.7,89.16,72.6861,11.0659,0.0905,0.0226,0.0,0.0,0.004854,19.364078,8436,-75.01295323933333,10.459450805666666,0.0,0.07547169811320754,0.0784313725490196,29.357037941614774,28.790414969126385,28.630757967631027,93.15817028284073,97.86762661238504,90.89084306359301,0
8520,Palmar de Varela,27639,28093,28932,46,10,6,7.85,16.41,25.39,50.35,0.7,0.05,1.52,6.46,57.98,27.0,5.26,20.3,1.13,50.08,49.92,7.28,83.58,56.0366,29.2605,3.9518,0.0291,0.0145,0.0,0.0531909999999999,67.680851,8520,-74.78896465285001,10.70597905085,0.8846153846153846,0.18867924528301888,0.11764705882352941,29.255067904790252,28.686622063318893,28.527008295059204,82.54815003275876,85.66555171211563,79.03841576973592,0
8549,Piojó,6260,6402,6608,3,0,7,7.33,18.58,24.63,49.47,4.79,24.18,1.47,10.98,51.35,33.82,2.02,23.94,0.57,52.02,47.98,19.23,81.69,73.0983,3.2777,0.1237,0.0,0.0,0.0,0.0038759999999999,5.186047,8549,-75.14829005896,10.7525310361,0.057692307692307696,0.0,0.13725490196078433,28.44932222366332,27.88770461082458,27.754479567209888,91.80455270409584,90.42378436525655,84.70315522948893,0
8558,Polonuevo,17374,17659,18197,8,5,199,7.72,17.93,25.19,49.16,1.73,0.16,6.37,6.1,57.8,34.37,3.16,21.53,1.61,50.57,49.43,14.47,84.2,57.5034,23.5466,3.7404,0.0676,0.0225,0.0225,0.041667,54.069444,8558,-74.84671917360001,10.7943651237,0.15384615384615385,0.11320754716981132,3.8823529411764706,28.797873735427853,28.22964453697205,28.07825565338136,82.76187135775892,84.6523743867874,78.34410493572554,0
8560,Ponedera,22765,23149,23848,13,3,6,9.1,19.24,26.71,44.94,1.25,0.01,5.14,11.67,48.87,31.37,3.84,22.44,0.42,50.92,49.08,7.42,88.2,71.1957,13.5519,0.561,0.1403,0.0,0.0175,0.009804,25.269608,8560,-74.8039332675,10.59678682672,0.25,0.05660377358490566,0.11764705882352941,29.24651050567626,28.680582125981648,28.519883394241344,87.3631963680188,90.03748227159183,82.71757332483928,0
8573,Puerto Colombia,43291,46643,49264,37,14,38,7.04,15.29,24.82,52.85,1.39,2.32,2.08,2.8,70.27,38.73,4.89,12.95,3.48,48.66,51.34,4.63,33.38,26.7835,19.4067,18.0285,11.3014,2.028,3.3406,0.505376,135.83871000000002,8573,-74.9002912876,11.027577482633331,0.7115384615384616,0.2641509433962264,0.7450980392156863,29.002612431844074,28.43542464574178,28.286813497543335,74.39582649059595,73.0669482300679,70.13394693161048,0
8606,Repelón,25096,25457,26200,9,11,1,8.81,18.65,25.63,46.91,85.24,0.15,7.71,12.2,48.14,29.8,4.87,21.94,0.46,50.01,49.99,9.34,81.02,70.6264,10.2427,0.6631,0.0282,0.0,0.0,0.0060609999999999,19.057576,8606,-75.1534957363,10.4993109914125,0.17307692307692307,0.20754716981132076,0.0196078431372549,29.037352720896397,28.46948504447937,28.32115594546001,91.63860961794855,95.7353691309691,88.29636464516334,0
8634,Sabanagrande,29850,30944,32334,13,5,12,8.34,16.84,26.7,48.12,1.86,0.06,3.15,5.83,59.25,32.19,7.18,20.25,1.18,49.92,50.08,4.47,79.82,60.2759,23.4624,2.2146,0.1139,0.0127,0.0,0.186047,167.883721,8634,-74.7585063109,10.7910757719,0.25,0.11320754716981132,0.21568627450980393,29.20222997665404,28.631917556126922,28.474973360697422,82.73700603842737,83.52389111121497,78.04213495055838,0
8638,Sabanalarga,89287,90637,93261,38,10,99,8.51,17.81,25.63,48.06,1.15,0.07,5.18,8.31,58.14,28.8,10.0,19.55,1.69,49.62,50.38,13.6,77.26,64.3906,14.6042,6.5025,0.4061,0.0296,0.0042,0.082707,53.634085,8638,-74.96091158573,10.59607650873,0.7307692307692307,0.18867924528301888,1.9411764705882353,28.623484929402668,28.05764277776083,27.90436593691508,87.79994841416682,92.98889033993089,84.05733726421994,0
8675,Santa Lucía,15318,15568,16023,5,0,0,9.24,19.5,26.44,44.81,35.09,0.02,7.2,9.88,47.28,23.75,11.8,22.43,0.76,49.89,50.11,11.8,82.04,75.5303,4.4816,0.2689,0.0598,0.0,0.0,0.0238099999999999,33.52381,8675,-74.95432208505,10.33670895985,0.09615384615384616,0.0,0.0,29.34318041801454,28.776151816050216,28.612067619959504,94.57037803033988,101.07560261090599,92.67150660355884,0
8685,Santo Tomás,28320,28905,29829,50,11,7,7.25,15.57,25.29,51.89,0.45,0.06,5.81,5.87,62.32,36.44,4.92,19.68,2.27,49.33,50.67,11.05,73.33,36.4202,40.0503,7.5914,0.053,0.0132,0.0397,0.075758,102.893939,8685,-74.7577207286,10.7587230349,0.9615384615384616,0.22641509433962265,0.11764705882352941,29.244230270385756,28.673917849858594,28.516973654429123,81.81153539816545,84.24144103626416,77.6651609639327,0
8758,Soledad,545067,571245,603999,305,324,675,8.1,16.57,27.36,47.97,1.32,0.08,3.36,3.08,65.56,35.5,6.48,17.29,1.91,48.68,51.32,1.42,45.82,49.6359,39.3713,2.5628,0.0554,0.0135,0.0061,1.358209,2042.313433,8758,-74.7848339582,10.9101742784,5.865384615384615,6.60377358490566,12.72549019607843,29.276897192001325,28.706584612528484,28.549640496571843,74.01932579775648,74.20530176162724,68.43366706371313,0
8770,Suan,11319,11537,11940,4,0,1,9.08,18.26,26.53,46.13,43.94,0.2,6.66,8.49,53.86,31.25,7.35,18.56,0.53,48.89,51.11,6.26,81.41,60.1341,20.3428,6.93,0.0,0.0745,0.0,0.018182,45.054545000000005,8770,-74.8816874004,10.3354309226,0.07692307692307693,0.0,0.0196078431372549,29.348421732584637,28.785184383392345,28.615154027938832,99.52301241954171,106.80138314763705,97.71093146999671,0
8832,Tubará,15645,16526,17377,8,10,11,7.68,16.63,25.63,50.06,0.61,63.4,3.55,8.68,52.89,30.51,7.63,23.5,1.89,51.94,48.06,11.67,66.4,46.7011,12.298,0.7855,2.0871,0.0449,0.2019999999999999,0.005682,17.471591,8832,-75.0081061386091,10.901712465672729,0.15384615384615385,0.18867924528301888,0.21568627450980393,28.171588818232223,27.606484651565566,27.46342945098877,81.37206580738223,80.35527557134633,76.30896844963233,0
8849,Usiacurí,11689,11896,12250,22,12,18,7.59,15.63,24.74,52.04,0.39,47.95,3.69,7.5,56.06,32.3,5.67,24.49,1.13,51.07,48.93,14.16,85.8,54.3693,24.3575,1.898,0.0,0.0,0.0,0.019417,21.320388,8849,-74.9769840969,10.742979811,0.4230769230769231,0.24528301886792453,0.3333333333333333,28.630375226338703,28.065169572830204,27.92100675900777,82.1183513700961,85.09149028857546,78.32770056525867,0
11001,"Bogotá, D.C.",7290415,7333415,7412566,0,0,0,5.74,12.84,26.9,54.52,0.93,0.27,6.38,2.0,70.35,48.18,5.23,9.57,4.95,47.81,52.19,0.49,22.45,7.7956,36.3515,32.1006,10.4489,3.3066,2.4266,0.867042,1321.745352,11001,-74.1950384158,4.326846072616363,0.0,0.0,0.0,8.493453135093054,7.858557234207789,7.813765466213226,94.2213926315308,94.8345629374186,113.39360666275032,0
13001,Cartagena de Indias,929169,946674,973045,128,56,554,7.92,16.37,26.48,49.24,20.26,0.15,2.5,3.82,65.28,35.32,7.49,15.23,2.76,48.09,51.91,5.36,47.87,40.3846,23.5528,12.8556,3.5156,1.5854,1.1995,0.571227,352.465444,13001,-75.54424827564516,10.35127022207258,2.4615384615384617,1.0754716981132075,10.843137254901961,28.764772812525422,28.185736179351817,28.06241480509439,90.6669353445371,91.1112668911616,86.35579376916087,0
13006,Achí,24398,24337,24352,8,5,2,9.4,21.86,24.91,43.83,0.47,3.2,3.69,12.56,40.3,30.76,4.42,21.48,0.11,52.76,47.24,26.08,82.08,78.3082,0.201,0.0838,0.0168,0.0,0.0168,0.002296,5.903559,13006,-74.51992173475,8.58832652332,0.15384615384615385,0.09433962264150944,0.0392156862745098,29.183123191197723,28.629976669947315,28.44113103548686,190.27207247416175,211.24545288085935,217.64631501833597,3
13030,Altos del Rosario,10820,10849,10972,13,1,1,10.92,23.87,26.1,39.12,50.93,0.06,8.56,13.32,35.06,29.43,5.34,19.29,0.04,52.18,47.82,45.55,81.74,68.2077,0.0758,0.0379,0.0379,0.0,0.0,0.004032,8.903226,13030,-74.21751614655,8.76576537695,0.25,0.018867924528301886,0.0196078431372549,29.4879043896993,28.917309284210205,28.716007153193143,169.8772934277853,190.6295938491822,195.82125457127904,3
13042,Arenal,7290,7274,7365,0,2,2,9.43,22.23,24.97,43.37,33.44,0.07,7.94,10.82,39.06,23.07,5.22,21.83,0.06,51.81,48.19,19.34,77.2,65.07600000000001,0.5912,0.1267,0.0422,0.0,0.0,0.001873,3.574906,13042,-73.9535800358,8.437670309182,0.0,0.03773584905660377,0.0392156862745098,24.76041603088378,24.220557610193882,24.021570523579914,158.0494008064271,180.31121301651004,186.63728666305545,2
13052,Arjona,67829,68333,69503,72,18,6,8.67,18.46,26.31,46.56,26.52,0.76,4.82,10.32,53.53,33.07,5.44,20.17,0.77,49.49,50.51,20.57,75.39,64.1266,11.7808,1.7581,0.1444,0.0516,0.0,0.017668,28.722615,13052,-75.3542126667625,10.195683881875,1.3846153846153846,0.33962264150943394,0.11764705882352941,28.775524218877155,28.19313144683838,28.054980278015126,103.5525318980216,111.08333298563963,100.27648595968883,1
13062,Arroyohondo,8228,8177,8254,1,0,1,9.1,18.75,26.25,45.9,22.28,0.07,6.16,13.9,43.12,31.89,3.08,25.12,0.36,50.67,49.33,31.46,82.64,74.7863,0.6409999999999999,0.1068,0.0,0.0,0.0,0.006173,9.783951,13062,-75.02682204425001,10.2361255887,0.019230769230769232,0.0,0.0196078431372549,29.107807079950955,28.53736416498819,28.37126175562541,97.89174719651533,105.29814054568607,96.32386232415837,0
13074,Barranco de Loba,16204,15342,14836,8,4,1,10.27,24.11,25.43,40.19,95.39,0.01,4.36,16.64,37.82,28.34,1.56,23.39,0.13,51.58,48.42,41.82,74.81,65.2829,0.6118,0.0655,0.0218,0.0,0.0,0.002404,8.507211999999999,13074,-74.17553688024,8.877176476822,0.15384615384615385,0.07547169811320754,0.0196078431372549,29.340759038925174,28.762286822001133,28.569187879562392,160.13011737664544,179.26313670476273,182.296671152115,2
13140,Calamar,22967,22632,22474,3,1,8,8.42,20.94,25.24,45.4,0.99,0.04,6.49,13.35,47.1,29.42,5.48,20.86,0.27,50.74,49.26,41.52,84.19,78.568,2.0527,0.3879,0.0323,0.0,0.0,0.011719,20.960938,13140,-74.97049463935001,10.1995953478,0.057692307692307696,0.018867924528301886,0.1568627450980392,29.12855927149455,28.558203299840287,28.3970483938853,96.65512461463608,105.4945591787497,96.25221618016566,0
13160,Cantagallo,8104,8146,8234,14,3,4,8.36,22.33,24.27,45.04,5.56,0.03,2.12,11.58,42.1,29.49,10.61,18.21,0.28,52.84,47.16,33.64,71.2,50.0182,2.7969,0.109,0.0,0.0,0.0,0.001495,3.218236,13160,-73.9652735384091,7.30915203445909,0.2692307692307692,0.05660377358490566,0.0784313725490196,28.173936684926357,27.59612949689227,27.446925799051925,190.14735476175932,216.12000719706217,244.01992289225268,3
13188,Cicuco,12829,13125,13442,10,6,0,9.7,22.84,24.77,42.7,4.16,0.1,7.49,15.34,41.81,28.38,2.81,20.09,0.27,50.5,49.5,6.45,81.18,73.4362,2.0391,0.0,0.0276,0.0,0.0,0.029126,29.990291,13188,-74.70909165456666,9.226110174121668,0.19230769230769232,0.11320754716981132,0.0,29.019337972005204,28.430449088414516,28.271464824676514,146.57409896453223,162.14781308174122,161.17173020044962,2
13212,Córdoba,15563,15678,15960,24,4,3,7.94,21.2,24.97,45.88,0.31,0.11,9.67,18.86,40.27,26.85,6.63,22.14,0.11,53.1,46.9,17.43,79.94,77.2767,0.5421,0.065,0.0,0.0,0.0,0.002222,8.464444,13212,-74.90799830996666,9.479266132041332,0.46153846153846156,0.07547169811320754,0.058823529411764705,29.12454390525818,28.55036886533102,28.407689253489178,99.73158137003577,114.73975014686579,109.43571829795832,0
13222,Clemencia,13835,14128,14511,0,4,0,9.97,19.59,27.69,42.75,1.45,0.17,2.13,13.17,49.56,25.82,6.2,19.25,0.17,50.61,49.39,71.18,77.44,75.4935,1.3722,0.0481,0.0,0.0,0.0,0.0,35.873684000000004,13222,-75.27664411260001,10.552246708266669,0.0,0.07547169811320754,0.0,28.521709918975805,27.951527754465747,27.818715254465744,94.26510450243939,95.1556554337343,87.49319239457452,0
13244,El Carmen de Bolívar,70079,69680,70131,311,127,71,8.78,19.62,25.77,45.83,3.81,1.74,7.37,12.79,47.36,34.13,4.61,19.77,0.44,51.53,48.47,24.27,79.69,70.6081,7.1469,0.748,0.0666,0.0102,0.0051,0.014675,18.114256,13244,-75.18778275681177,9.705665360847648,5.980769230769231,2.3962264150943398,1.392156862745098,28.067378362019877,27.491293112436946,27.37488738695779,105.91572306553523,117.90798103809351,113.08787133296325,1
13248,El Guamo,8622,8597,8647,11,2,3,7.06,17.73,23.1,52.11,15.8,0.0,15.38,16.44,40.05,32.08,3.47,24.84,0.19,53.07,46.93,21.43,75.43,73.4998,0.3222,0.0,0.0403,0.0,0.0,0.0,4.892308,13248,-74.90195357391667,10.04050039758,0.21153846153846154,0.03773584905660377,0.058823529411764705,28.959981600443502,28.387715657552082,28.23402667045593,98.83034821351374,110.87689085801456,99.3263747692108,0
13268,El Peñón,7796,7635,7651,0,0,0,9.8,23.42,23.39,43.39,2.23,0.1,15.32,14.14,38.01,24.4,3.58,26.38,0.14,52.7,47.3,38.95,80.86,80.6551,0.2047,0.1024,0.0,0.0,0.0,0.003968,6.670635000000001,13268,-73.92329152454285,8.914384064275714,0.0,0.0,0.0,29.63486099243164,29.064078410466497,28.86885237693789,147.87658741076788,169.23630889256796,171.70241924126947,2
13300,Hatillo de Loba,12491,12296,12317,10,0,3,10.06,23.95,25.19,40.8,0.69,0.04,9.65,17.13,36.53,25.64,3.87,19.5,0.51,51.44,48.56,12.83,79.48,80.7821,0.2674,0.0,0.1337,0.0,0.0,0.006667,16.813333,13300,-74.18901678295454,8.972536072497272,0.19230769230769232,0.0,0.058823529411764705,29.508504152297988,28.920649766922015,28.735146204630524,145.38990894953403,163.6064445177714,164.05611423651362,2
13430,Magangué,132191,131761,133270,255,92,54,8.62,20.1,25.39,45.89,0.95,0.1,6.11,9.31,49.38,31.09,4.18,20.49,0.43,50.11,49.89,14.55,74.1,70.2416,14.4149,0.3911,0.0399,0.0186,0.0106,0.026148,21.220663,13430,-74.70954001251191,9.150911632504048,4.903846153846154,1.7547169811320755,1.0392156862745099,29.015149116516117,28.440149068832387,28.271789709726974,153.24637500445053,169.67975823084507,171.12311983108512,2
13433,Mahates,27063,27236,27692,1,0,2,8.48,19.19,26.19,46.14,72.1,0.58,9.1,13.48,46.19,28.83,7.63,19.89,0.21,51.32,48.68,15.16,82.4,80.0266,1.0246,0.0399,0.0,0.0266,0.0,0.008351,13.484342000000002,13433,-75.18492469858751,10.1736801414375,0.019230769230769232,0.0,0.0392156862745098,29.037767330805448,28.45768880844116,28.303131898244217,102.40081958969427,110.59890966614087,99.74433613816905,1
13440,Margarita,10780,10682,10673,8,1,0,8.43,20.64,22.29,48.64,0.34,0.08,12.71,12.86,37.59,29.25,5.52,24.74,0.19,52.12,47.88,25.9,85.2,75.8868,0.6808,0.2508,0.1075,0.0,0.0,0.0,8.247458,13440,-74.24289779213636,9.100522754337272,0.15384615384615385,0.018867924528301886,0.0,29.28427378336588,28.687550942103076,28.513679027557377,138.0283168156941,154.04857508341468,154.90910768508914,2
13442,María La Baja,47180,46116,46112,1,0,3,9.49,21.57,26.35,42.58,93.17,0.94,1.58,14.66,42.78,31.2,4.58,19.74,0.26,50.62,49.38,68.13,87.98,81.1712,4.1604,0.0792,0.0238,0.0158,0.0,0.010969,20.868373,13442,-75.33156269709687,9.95448374690625,0.019230769230769232,0.0,0.058823529411764705,29.07660222053528,28.497102022171017,28.371798833211255,112.12244388461117,118.42454443375262,112.64739633599915,1
13458,Montecristo,15983,16128,16389,9,5,22,11.03,22.99,26.47,39.5,19.7,0.23,7.1,12.13,33.88,36.04,1.51,21.07,0.04,54.86,45.14,59.84,77.13,46.7731,0.0222,0.0222,0.0,0.0,0.0,0.000481,1.881674,13458,-74.52989498538571,8.223994417365715,0.17307692307692307,0.09433962264150944,0.43137254901960786,28.217234134674086,27.673006455103543,27.500090122222904,190.68727485338846,213.0480861663818,231.98437865575144,3
13468,Mompós,44527,44233,44442,133,38,34,8.93,20.9,24.54,45.63,0.5,0.02,1.71,11.34,49.05,33.11,3.61,19.05,0.89,49.67,50.33,11.64,75.85,70.132,8.7655,1.5994,0.1009,0.0078,0.0078,0.017054,16.666667,13468,-74.55303612087083,9.123333574481247,2.5576923076923075,0.7169811320754716,0.6666666666666666,28.94480609893799,28.356611490249644,28.192679246266675,143.50483743349704,158.19439776738483,160.7457427581152,2
13473,Morales,21720,21887,22259,10,1,9,10.24,21.62,25.89,42.25,0.84,0.01,4.06,8.08,37.76,31.0,5.29,21.12,0.09,53.39,46.61,46.33,86.34,49.2938,3.8409,0.0689,0.0344,0.0,0.0,0.000567,2.894051,13473,-73.85241271206,8.295791970583,0.19230769230769232,0.018867924528301886,0.17647058823529413,27.341056505839035,26.7968868414561,26.596568822860707,167.37688748041788,196.91623528798434,199.61292823155722,3
13490,Norosí,7573,7640,9212,2,2,9,11.67,23.17,26.72,38.44,2.85,0.03,8.65,12.72,36.38,36.12,0.94,17.61,0.06,53.55,46.45,81.22,83.38,46.1759,0.0,0.0359,0.0,0.0,0.0,0.0,5.686893,13490,-74.05693728318,8.579034983822,0.038461538461538464,0.03773584905660377,0.17647058823529413,28.537784496943164,27.986931006113704,27.786786238352477,169.10138777891805,191.9028611183165,198.56461143493655,3
13549,Pinillos,26087,25029,24218,11,5,3,9.9,23.18,26.78,40.13,1.48,0.0,9.66,11.83,40.7,24.66,7.97,21.55,0.26,52.73,47.27,43.26,88.37,71.3376,0.2623,0.0375,0.0187,0.0,0.0,0.005312,6.351926000000001,13549,-74.40586531963125,8.88130714521375,0.21153846153846154,0.09433962264150944,0.058823529411764705,29.265619754791246,28.689925193786625,28.50429153442384,166.84214882055917,185.1322442690532,188.88357528050736,3
13580,Regidor,5988,6429,6723,3,0,0,10.72,22.59,26.24,40.45,1.35,0.11,2.7,11.32,44.5,29.67,6.3,20.37,0.15,50.48,49.52,8.41,74.6,69.8821,0.1608,0.3215,0.0,0.0,0.0,0.0,3.60101,13580,-73.86202259175715,8.707011960264285,0.057692307692307696,0.0,0.0,29.595638672510777,29.037696361541737,28.838998556137085,149.08322852849963,170.5790627797446,175.1097626686097,2
13600,Río Viejo,11743,11827,10598,1,3,4,9.06,20.69,24.02,46.23,1.51,0.02,5.14,11.7,39.78,28.76,8.55,22.19,0.14,52.8,47.2,28.22,71.71,54.8177,0.8138,0.0,0.0326,0.0,0.0,0.0021219999999999,1.707921,13600,-73.9065347668,8.601085040341667,0.019230769230769232,0.05660377358490566,0.0784313725490196,29.599428971608493,29.04365650812785,28.844090382258088,159.29621386528027,180.15091784795138,190.31874513626101,2
13620,San Cristóbal,7647,7835,8054,0,1,1,8.52,17.78,25.64,48.07,43.14,0.05,10.5,9.83,49.91,26.42,8.34,22.54,0.4,50.2,49.8,5.13,88.48,87.2589,1.0659999999999998,0.0,0.0508,0.0,0.0,0.0,31.857143,13620,-75.07967601446667,10.376156804433334,0.0,0.018867924528301886,0.0196078431372549,29.32434860865276,28.753905614217135,28.59372766812643,98.47555441657698,103.8699816664059,94.6982784668604,0
13647,San Estanislao,17557,17827,18251,0,1,1,7.92,19.0,24.31,48.76,34.94,0.18,7.08,13.12,48.62,31.55,4.79,22.18,0.67,50.19,49.81,9.45,83.73,71.4774,9.9209,0.3635,0.0855,0.0,0.0,0.009615,19.317308,13647,-75.1730967411,10.3566161378,0.0,0.018867924528301886,0.0196078431372549,29.090100606282547,28.514536380767808,28.360217809677124,94.92500741283096,100.55491353074716,91.97469656666124,0
13650,San Fernando,13191,12769,12536,6,1,0,8.61,23.02,23.68,44.69,0.36,0.0,9.31,14.14,37.73,22.44,3.63,30.76,0.33,51.81,48.19,27.35,79.3,73.1848,1.4378,0.0,0.0,0.0,0.0,0.002577,5.976804,13650,-74.33124726464445,9.153356282221113,0.11538461538461539,0.018867924528301886,0.0,29.15216493606567,28.560498634974167,28.388666629791263,148.37838908036557,164.7127250830332,167.91783062616992,2
13654,San Jacinto,23827,23786,23913,20,5,7,7.61,18.74,24.79,48.86,4.71,0.31,12.39,12.47,48.77,25.58,8.55,21.25,0.5,51.2,48.8,83.51,71.61,72.3791,5.2825,0.2309,0.0272,0.0136,0.0,0.009217,14.276498000000002,13654,-75.16206587836668,9.85236920893778,0.38461538461538464,0.09433962264150944,0.13725490196078433,27.742730379104625,27.162130991617843,27.034830649693802,109.3728538453579,121.13950332005818,113.94951212406157,1
13655,San Jacinto del Cauca,9692,9766,9935,7,3,9,8.65,23.06,23.79,44.5,0.48,0.06,7.41,11.7,40.26,24.68,4.26,23.06,0.0,53.24,46.76,51.65,80.95,77.9865,0.1878,0.0751,0.0,0.0,0.0,0.003643,4.065574,13655,-74.6567011108625,8.27283809955875,0.1346153846153846,0.05660377358490566,0.17647058823529413,29.13761798540752,28.57891567548116,28.430471261342372,226.59399843215945,251.11334673563644,256.8940664927164,3
13657,San Juan Nepomuceno,36533,36515,36874,3,5,86,7.4,17.52,24.47,50.61,6.69,0.81,6.04,13.07,49.99,35.08,3.85,20.07,0.71,51.22,48.78,40.13,76.09,59.8358,20.2849,0.2264,0.0189,0.0094,0.0094,0.01037,13.441481,13657,-75.0448082291143,9.970877250605714,0.057692307692307696,0.09433962264150944,1.6862745098039216,27.87318293253581,27.295709053675353,27.153825441996247,102.92902928590775,115.7535806099575,108.17553995052975,1
13667,San Martín de Loba,15841,15230,14774,26,3,1,9.89,23.46,24.42,42.22,1.04,0.0,7.25,11.44,40.93,29.42,3.27,22.21,0.13,52.54,47.46,34.23,74.21,66.785,0.757,0.0473,0.0473,0.0,0.0,0.002262,8.004525,13667,-73.99722128235,8.836698205311249,0.5,0.05660377358490566,0.0196078431372549,28.84416850407919,28.274572372436523,28.077610890070613,151.1273648738861,171.42827765146887,173.1147829691569,2
13670,San Pablo,27032,27060,27190,17,3,45,9.69,23.32,26.52,40.47,0.47,0.09,5.37,10.25,41.37,34.32,3.66,18.13,0.11,50.89,49.11,18.06,66.13,64.8256,1.9817,0.1054,0.0211,0.0105,0.0,0.000508,3.50483,13670,-74.00577017224705,7.5723457479141185,0.3269230769230769,0.05660377358490566,0.8823529411764706,27.65349197387695,27.089306592941274,26.917554457982373,181.47084697087607,210.3648211161296,235.73636309305834,3
13673,Santa Catalina,14495,14483,14563,1,1,1,8.95,19.91,25.89,45.26,24.99,0.04,1.43,11.32,49.8,30.27,7.27,21.33,0.78,50.07,49.93,81.85,81.99,75.4156,0.5619,0.0468,0.1405,0.0,0.0,0.019608,23.503268,13673,-75.2736761506,10.6984658925,0.019230769230769232,0.018867924528301886,0.0196078431372549,28.59499200185138,28.03045177459718,27.899838209152225,87.19855566074455,89.30559800068534,82.06150060395403,0
13683,Santa Rosa,20284,20550,20963,6,1,11,9.22,18.18,27.41,45.19,4.41,0.11,4.55,9.64,53.24,31.22,7.93,21.65,0.32,49.88,50.12,60.91,85.95,82.4788,2.0046,0.0386,0.0386,0.0,0.0,0.0264899999999999,31.231788,13683,-75.369832134,10.4443941775,0.11538461538461539,0.018867924528301886,0.21568627450980393,28.59442504247028,28.019294500350956,27.88520884513854,97.42619802057747,98.50272744894028,90.75587779283535,0
13688,Santa Rosa del Sur,31091,31809,32646,33,24,322,10.22,21.24,29.74,38.8,0.38,0.1,7.67,5.82,39.54,37.87,2.34,17.33,0.41,51.53,48.47,25.7,79.36,50.4848,7.0868,0.5309,0.0462,0.0346,0.0,0.001364,3.3390910000000003,13688,-74.14056009405,7.973375144870999,0.6346153846153846,0.4528301886792453,6.313725490196078,22.513710498809832,21.96835462252299,21.778424263000492,168.01963551839196,202.15483601888025,213.39448960622147,3
13744,Simití,18398,18083,18110,2,5,35,9.35,21.21,25.38,44.06,0.84,0.08,6.99,9.99,40.9,34.67,2.79,21.7,0.25,52.62,47.38,26.64,68.61,53.7399,3.713,0.0717,0.0179,0.0179,0.0,0.000692,2.907266,13744,-73.97199191829445,7.828093800822777,0.038461538461538464,0.09433962264150944,0.6862745098039216,29.55057597160338,28.994528214136754,28.802840232849125,179.39599911371866,212.6302661895751,231.3547019958497,3
13760,Soplaviento,10407,10473,10650,0,0,1,7.06,16.53,23.28,53.12,13.26,0.07,10.95,5.8,58.66,29.76,7.21,21.86,1.52,49.44,50.56,10.38,89.98,82.0513,6.891,0.3205,0.0,0.0,0.0,0.021978,25.307692000000003,13760,-75.1364262581,10.3884564354,0.0,0.0,0.0196078431372549,29.266744136810306,28.693523486455277,28.532825311024983,103.81033111115299,108.68957083423932,102.37159913281603,1
13780,Talaigua Nuevo,12997,13014,13108,3,2,3,9.73,22.06,25.55,42.66,0.4,0.02,7.25,11.05,48.16,28.42,5.73,19.93,0.33,50.66,49.34,11.53,82.97,78.9872,2.532,0.1455,0.0291,0.0,0.0,0.007663,11.609195,13780,-74.59583891383001,9.313015687421998,0.057692307692307696,0.03773584905660377,0.058823529411764705,28.948253790537517,28.353556474049892,28.196431318918865,137.76860870917633,151.85624496142054,151.45731274286902,2
13810,Tiquisio,18672,18096,18035,12,13,4,11.78,25.8,25.2,37.22,0.22,0.14,7.15,13.35,36.66,30.75,2.78,20.17,0.06,52.83,47.17,48.37,73.53,52.9855,0.1653,0.0367,0.0,0.0,0.0,0.0013189999999999,5.569921,13810,-74.289533112475,8.543491557214999,0.23076923076923078,0.24528301886792453,0.0784313725490196,29.15237251917519,28.607515811920166,28.41215968132018,183.35105776786793,206.14109071095788,214.38745673497513,3
13836,Turbaco,97108,101014,105166,21,14,43,7.81,17.26,25.37,49.55,1.93,0.17,7.97,4.78,64.03,34.9,6.6,17.3,2.21,49.28,50.72,20.34,51.97,34.4687,42.1179,3.649,3.0715,0.0295,0.0361,0.117647,127.098039,13836,-75.40492620576251,10.3515492774125,0.40384615384615385,0.2641509433962264,0.8431372549019608,28.192664305369064,27.611804803212493,27.475404659907024,98.25305144985516,102.10756625235075,93.54589479168253,0
13838,Turbaná,15508,15945,16403,0,1,0,8.21,18.12,25.0,48.68,3.18,0.14,4.12,8.94,54.77,28.62,7.04,23.65,0.93,51.14,48.86,37.16,84.61,70.1975,13.1732,0.3815,0.1346,0.0,0.0,0.0067569999999999,26.621622,13838,-75.455765961,10.217547173166666,0.0,0.018867924528301886,0.0,28.40933005015054,27.825085242589314,27.689495245615632,99.07881529132527,102.24726239840186,94.42568569382026,0
13873,Villanueva,22700,23126,23777,1,11,2,8.75,20.16,26.19,44.9,28.17,0.02,3.35,11.12,46.89,36.1,2.47,20.18,0.27,51.09,48.91,42.1,88.15,87.3183,0.7267,0.1453,0.0545,0.0182,0.0,0.014815,37.207407,13873,-75.27857828533332,10.452890613433334,0.019230769230769232,0.20754716981132076,0.0392156862745098,28.29843242963156,27.723909457524613,27.579986333847057,98.07653266191475,102.17236335078867,93.08930893739064,0
13894,Zambrano,11379,11617,11880,2,1,4,8.47,19.39,26.23,45.9,4.45,0.45,8.99,15.42,46.78,30.17,7.85,19.13,0.26,53.0,47.0,16.22,74.62,74.9188,0.5613,0.1182,0.1773,0.0,0.0295,0.0069689999999999,10.30662,13894,-74.8793857981,9.73799622867,0.038461538461538464,0.018867924528301886,0.0784313725490196,28.853992064793896,28.274174372355148,28.136992851893098,110.01537144184118,126.26930379867554,116.24753399689992,1
15001,Tunja,169594,171247,172548,0,0,0,6.41,15.06,27.46,51.07,0.39,0.06,6.96,2.36,68.19,40.01,5.94,10.61,4.07,47.17,52.83,0.93,34.24,10.1439,24.6899,31.5263,11.4027,5.4288,0.0526,1.2203389999999998,459.27118600000006,15001,-73.3554896602,5.5399515492,0.0,0.0,0.0,12.576089541117353,11.963654577732084,11.866859277089441,60.76067519187927,62.443407773971536,78.1500867207845,0
15022,Almeida,2015,1951,1910,0,0,0,4.24,12.07,17.64,66.06,0.06,0.0,24.46,7.84,38.87,30.53,4.36,25.66,0.63,52.47,47.53,24.46,65.65,15.8002,47.2987,0.4077,0.0,0.0,0.0,0.0,11.649123,15022,-73.378935594,4.97085237348,0.0,0.0,0.0,16.753586689631142,16.131689866383848,16.0643721818924,109.91377115249645,110.52663437525433,136.73907661437988,1
15047,Aquitania,15685,15454,15377,0,0,0,7.26,18.19,23.18,51.37,0.22,0.06,16.43,7.98,38.78,38.96,2.08,20.61,0.25,50.83,49.17,16.74,59.22,23.8436,35.7953,0.4178,0.0895,0.0149,0.0,0.001208,5.050725,15047,-72.9021407969,5.440319875331667,0.0,0.0,0.0,9.365212917327876,8.761675715446472,8.639019469420115,100.20822135607402,99.91881521542864,124.8541289170583,1
15051,Arcabuco,5659,5756,5831,0,0,0,7.06,16.82,25.23,50.89,0.07,0.04,12.1,5.34,44.65,48.0,1.54,12.44,0.49,49.94,50.06,10.97,56.59,7.1429,62.1152,0.8287,0.0395,0.0395,0.0,0.0064519999999999,11.690323,15051,-73.4375431565,5.75546754184,0.0,0.0,0.0,12.035342196623494,11.432716270287814,11.325533231099442,66.39448213577265,69.08141501744583,85.59832040468858,0
15087,Belén,7900,7626,7481,0,0,0,6.27,15.91,23.09,54.73,0.22,0.0,17.36,4.97,47.32,32.55,4.1,23.7,2.49,47.83,52.17,6.2,56.95,5.0122,56.4075,0.4606,0.0,0.0271,0.0,0.003521,8.299296,15087,-72.9116162763,5.98928041246,0.0,0.0,0.0,11.866893271605159,11.277367850144708,11.122969587643942,69.62329951922096,75.43752829233804,94.40953334172553,0
15090,Berbeo,1689,1623,1596,2,0,0,4.89,15.14,17.96,62.01,0.14,0.07,19.75,9.64,38.2,24.64,3.23,29.8,0.89,50.79,49.21,11.6,75.92,23.4949,53.0103,0.2937,0.0,0.0,0.1468,0.016393,9.032787,15090,-73.1270304656,5.22728677682,0.038461538461538464,0.0,0.0,22.38096809387207,21.763317704200734,21.66800510883331,155.16351334253946,148.43669160207114,189.1354829470317,2
15092,Betéitiva,2103,1999,1963,0,0,0,4.91,12.72,23.43,58.94,0.11,0.05,10.5,7.86,41.85,21.53,6.6,36.15,2.27,49.55,50.45,13.89,42.0,34.9206,6.6138,0.2646,0.0,0.0,0.0,0.00813,5.284553,15092,-72.8376639664,5.90926162891,0.0,0.0,0.0,12.944071531295783,12.351536830266307,12.199800749619806,77.77367719014475,83.80264091491692,104.73617347081499,0
15097,Boavita,5874,5416,5059,38,0,0,5.69,14.03,20.26,60.01,0.22,0.02,20.32,9.75,42.89,25.1,2.31,34.06,1.51,49.42,50.58,31.45,58.61,20.8649,39.6434,0.1517,0.0,0.0379,0.0,0.0,10.402516,15097,-72.5849675798,6.33065368603,0.7307692307692307,0.0,0.0,15.916884144147255,15.320696234703059,15.148864527543394,87.11707274119055,92.1755990982055,112.93386729558308,0
15104,Boyacá,5127,5078,5089,6,0,2,5.84,16.66,22.12,55.39,0.09,0.0,11.72,9.01,31.8,30.64,2.28,25.78,0.49,51.59,48.41,7.8,47.76,15.6936,32.6021,0.6412,0.1012,0.0,0.0,0.020833,31.625,15104,-73.3623009748,5.45423551545,0.11538461538461539,0.0,0.0392156862745098,15.053735772768656,14.437220891316734,14.344621260960892,82.14396778742469,84.76271756490068,105.81412601470952,0
15106,Briceño,2354,2251,2198,7,0,0,5.26,14.36,20.89,59.49,0.1,0.0,14.65,8.76,32.81,37.93,2.14,25.56,0.15,53.89,46.11,37.05,62.46,32.2425,28.7777,0.2887,0.0962,0.0,0.0,0.015625,10.609375,15106,-73.9232607965,5.6908769735,0.1346153846153846,0.0,0.0,23.171501398086534,22.563949267069493,22.46974333127338,139.07976722717288,146.52016512552885,174.82887585957846,2
15109,Buenavista,4742,4498,4409,0,0,0,5.17,15.73,18.4,60.71,0.33,0.0,14.36,11.27,32.67,36.79,2.5,27.33,0.38,52.43,47.57,32.57,65.36,20.9947,42.0335,0.3521,0.088,0.0,0.044,0.009009,13.54955,15109,-73.9423004687,5.51242923727,0.0,0.0,0.0,17.241339087486256,16.627710382143665,16.5493467648824,103.70240688323969,113.36474609374993,129.6369562149048,1
15114,Busbanzá,1074,1087,1118,0,0,0,7.64,16.5,22.59,53.27,0.33,0.22,8.08,5.87,45.07,22.04,9.97,26.25,1.44,49.39,50.61,4.81,53.39,38.2932,15.7549,0.6565,0.0,0.0,0.0,0.0,12.045455,15114,-72.8841622923,5.83139321087,0.0,0.0,0.0,14.770473897457117,14.1763189236323,14.032105902830773,67.04243787129722,69.7661441167195,84.33707459767648,0
15131,Caldas,3341,3201,3143,0,0,0,4.89,16.2,19.96,58.94,0.23,0.0,15.91,7.81,38.85,25.79,4.76,33.31,0.87,49.48,50.52,19.78,59.83,11.1722,48.5348,0.3053,0.0,0.0,0.0,0.009009,8.972973,15131,-73.86385431229999,5.5754961455,0.0,0.0,0.0,14.063563346862788,13.451150039831797,13.365017235279083,75.35239362716668,79.99986187616986,95.4399684270223,0
15135,Campohermoso,3418,3223,3121,2,0,0,7.43,15.19,21.7,55.67,0.22,0.04,15.97,7.21,32.72,30.31,2.0,28.91,0.74,50.98,49.02,38.58,65.63,18.4917,45.1051,0.2901,0.0725,0.0725,0.0,0.003311,3.13245,15135,-73.11951368706667,5.01599505007,0.038461538461538464,0.0,0.0,22.607480605443318,21.986936648686733,21.90724921226501,183.29969501495353,177.3755706151327,225.3179572423298,3
15162,Cerinza,3922,3781,3713,0,0,1,4.65,14.11,23.16,58.09,0.19,0.08,13.67,5.09,44.99,31.02,5.91,24.75,0.88,48.27,51.73,3.52,47.08,17.4327,31.5942,0.3313,0.0414,0.0,0.0,0.016393,19.672131,15162,-72.9482718544,5.95603263546,0.0,0.0,0.0196078431372549,10.220711886882782,9.631880939006804,9.484427193800608,66.08155361811322,69.12554144859318,85.54258418083192,0
15172,Chinavita,3372,3263,3209,1,0,0,4.96,13.76,18.3,62.98,0.04,0.0,13.97,10.06,37.26,23.4,10.06,28.99,2.15,49.16,50.84,13.25,51.78,23.8532,29.2049,0.4587,0.0,0.0,0.0,0.0,7.297297,15172,-73.3684756833,5.16748347348,0.019230769230769232,0.0,0.0,17.832205454508475,17.20844248930613,17.126454631487526,111.70922946929927,114.44260724385578,141.76768906911215,1
15176,Chiquinquirá,55756,55925,56054,0,0,0,6.71,17.08,25.98,50.23,0.37,0.07,6.29,4.46,58.24,39.8,4.37,13.47,2.19,47.67,52.33,2.5,53.7,10.3998,43.8295,21.7486,0.2023,0.0289,0.0048,0.120301,120.390977,15176,-73.8183869915,5.61412836353,0.0,0.0,0.0,15.204042593638126,14.591455837090834,14.498856027921043,78.21413723627732,81.77515729268391,99.47396453221641,0
15180,Chiscas,4433,4129,3994,0,0,0,5.8,15.25,21.41,57.54,0.03,0.11,21.19,7.69,41.43,17.45,3.46,41.93,0.59,50.49,49.51,15.58,54.47,35.4049,19.4444,0.1883,0.0,0.0,0.0,0.0,1.847328,15180,-72.48661534685,6.56365131417,0.0,0.0,0.0,8.415039658546448,7.803516179323196,7.623698552449544,80.03853607177727,90.44288261731475,111.53283707300822,0
15183,Chita,9065,8434,8045,0,0,0,7.2,21.46,21.16,50.18,0.18,0.86,13.94,11.58,33.94,17.18,4.47,36.46,0.3,51.27,48.73,26.8,50.24,31.1739,12.3478,0.1522,0.0,0.0217,0.0,0.0,3.244652,15183,-72.471892654,6.18708569854,0.0,0.0,0.0,10.168507953484852,9.561845878760023,9.396763304869337,112.44368894894914,115.00519752502431,149.37399681409195,1
15185,Chitaraque,6003,5869,5830,40,8,2,7.06,16.94,20.23,55.77,0.04,0.0,5.41,10.45,34.09,39.7,1.52,24.76,0.54,52.0,48.0,40.99,67.01,40.3486,24.9575,0.3401,0.0,0.0425,0.0,0.006369,10.592357000000002,15185,-73.4471010235,6.02742601824,0.7692307692307693,0.1509433962264151,0.0392156862745098,19.150989135106403,18.561600963274635,18.437035123507183,136.4422178268432,144.0473575592042,175.91143226623547,2
15187,Chivatá,2871,2800,2788,0,0,0,8.77,17.25,24.18,49.8,1.55,0.0,14.3,8.05,41.25,25.8,8.95,23.82,0.79,50.59,49.41,6.14,73.24,52.7956,17.8735,0.8249,0.0,0.0,0.0,0.020408,16.918367,15187,-73.2825292916,5.55894934359,0.0,0.0,0.0,13.522990504900607,12.914809087912227,12.813181440035509,64.58068736394249,66.5946536064148,84.32266743977856,0
15189,Ciénega,4754,4661,4635,0,0,0,7.68,16.21,21.46,54.65,0.13,0.07,16.87,7.77,33.7,36.02,1.4,26.38,0.49,49.6,50.4,8.78,65.74,15.8603,50.1746,0.5985,0.0,0.0,0.0,0.013699,18.917808,15189,-73.296061354,5.40870037319,0.0,0.0,0.0,13.81611148516336,13.200812240441635,13.10514527559281,76.2722655932108,79.22427654266366,99.69516785939545,0
15204,Cómbita,12715,12767,12970,0,0,0,4.55,12.25,23.84,59.35,1.41,0.36,8.0,4.52,47.33,24.28,3.43,20.5,0.64,62.2,37.8,8.03,59.15,26.9249,33.2711,1.6099,0.8633,0.2566,0.0233,0.013423,18.825503,15204,-73.3094399861,5.630132072089999,0.0,0.0,0.0,13.045420984427125,12.442100465297699,12.336306432882958,63.566065788269064,67.21603759129847,82.75683331489557,0
15212,Coper,3818,3694,3619,130,19,0,5.96,15.14,19.94,58.96,0.07,0.1,2.52,13.12,32.79,45.94,1.26,20.67,0.23,52.47,47.53,48.35,71.83,53.1662,19.591,0.066,0.0,0.0,0.0,0.00495,5.613861,15212,-74.0454584503,5.47498409448,2.5,0.3584905660377358,0.0,21.723913908004757,21.115840752919514,21.04364049434662,135.06927235921228,143.16511503855398,168.1253604888916,2
15215,Corrales,2525,2499,2498,0,0,0,6.25,15.25,24.77,53.73,0.2,0.0,16.3,5.37,48.69,26.95,8.19,25.37,2.94,51.11,48.89,4.89,69.93,25.9105,44.641000000000005,0.5203,0.0,0.1041,0.0,0.0166669999999999,11.883333,15215,-72.8447949701,5.82810438505,0.0,0.0,0.0,15.293285409609481,14.697972993055968,14.553181231021874,72.5017196337382,74.18886454900102,89.52066659927367,0
15218,Covarachía,2933,2856,2806,1,0,0,6.05,16.48,19.29,58.18,0.27,0.0,22.18,10.92,36.04,21.99,4.26,32.99,0.46,52.44,47.56,25.05,53.98,29.2557,18.9644,0.0,0.0,0.0,0.0,0.0,8.281553,15218,-72.7389763109,6.50018289986,0.019230769230769232,0.0,0.0,19.65590771039327,19.073623140652977,18.906565785408016,101.84912578264873,114.58127927780153,137.1367502212524,1
15223,Cubará,8978,9808,10319,18,0,18,12.27,24.94,27.72,35.07,0.41,54.05,3.32,34.28,22.92,15.01,4.92,31.51,0.38,50.31,49.69,44.67,77.7,21.3755,15.5204,0.1859,0.031,0.0,0.0,0.000606,1.558182,15223,-72.058113685625,6.9971269093775,0.34615384615384615,0.0,0.35294117647058826,18.941816488901782,18.293878078460708,18.090579549471542,162.2874228159587,206.30103969573983,229.27647844950343,2
15224,Cucaita,3786,3750,3725,0,0,0,6.84,18.37,25.3,49.48,0.0,0.0,12.92,4.86,40.21,37.48,4.8,20.68,0.33,50.9,49.1,3.27,64.69,35.0975,30.2228,0.4875,0.0,0.0,0.0,0.023256,22.534884,15224,-73.4543383107,5.54445121651,0.0,0.0,0.0,12.889557023843134,12.276297430197387,12.180616120497382,72.6357790629069,75.0713969866435,93.08909145991014,0
15226,Cuítiva,1860,1815,1798,0,0,0,7.0,17.26,21.38,54.36,0.25,0.12,15.91,7.74,40.11,28.38,4.91,28.44,1.29,49.02,50.98,9.03,54.18,25.6484,25.8405,0.1921,0.1921,0.0961,0.0,0.023256,13.674419,15226,-72.93899074155,5.590313393400001,0.0,0.0,0.0,12.093990147113777,11.492796699206032,11.366320868333183,64.62091485659279,66.55771931012467,82.52879746754971,0
15232,Chíquiza,4825,4722,4684,0,0,0,6.69,16.91,22.27,54.13,0.05,0.0,4.0,8.42,27.97,30.94,6.37,27.88,0.07,51.23,48.77,16.39,65.08,23.124,38.9995,1.1741,0.051,0.0,0.0,0.014085,18.183099,15232,-73.4851277444,5.60541181948,0.0,0.0,0.0,12.487628181775419,11.88074876864752,11.77816637357075,63.092909177144406,66.69465923309325,82.11173963546749,0
15236,Chivor,2379,2412,2479,0,0,0,4.73,15.28,21.27,58.72,0.06,0.0,13.66,7.61,40.14,26.36,7.13,33.25,0.18,53.57,46.43,22.67,66.54,29.2892,34.5588,1.1029,0.0,0.0,0.0,0.0,5.621359,15236,-73.366893755,4.88778166,0.0,0.0,0.0,20.38242304325105,19.761553446451824,19.698778470357258,160.0033345222473,160.01739501953125,202.21676556269327,2
15238,Duitama,120909,121715,122436,0,0,0,6.05,14.99,24.74,54.22,0.22,0.04,7.27,2.68,64.85,39.19,5.4,13.63,4.15,47.58,52.42,1.08,46.73,11.232,42.7601,21.4139,4.3255,0.7537,0.0212,0.225806,205.994624,15238,-73.045153239925,5.812048295185,0.0,0.0,0.0,9.328169405460363,8.737023651599884,8.600912441809974,64.15686647097273,66.94006824493408,83.74859738349913,0
15244,El Cocuy,4810,4445,4215,0,0,0,6.58,18.93,20.68,53.81,0.23,0.05,10.55,7.1,40.46,22.68,3.5,33.96,0.5,50.96,49.04,9.76,57.48,29.2214,30.182,0.91,0.0,0.0,0.0,0.003953,4.818182,15244,-72.4447300399,6.40771564853,0.0,0.0,0.0,9.240583419799801,8.63426841298739,8.459311852852503,55.74192357063294,59.64864691098531,72.72641038894658,0
15248,El Espino,3201,3094,3061,0,0,0,5.78,14.66,23.39,56.17,0.41,0.26,11.2,5.56,47.15,25.64,6.0,26.96,1.29,52.45,47.55,5.84,58.76,21.6749,40.183,0.1407,0.0704,0.0,0.0,0.0,13.085714,15248,-72.4970129087,6.48303062085,0.0,0.0,0.0,13.07789655526478,12.472782274087258,12.296870907147722,66.30086215337117,72.51685317357374,87.54547262191782,0
15272,Firavitoba,6486,6542,6662,0,0,0,5.75,14.87,21.86,57.52,0.12,0.05,12.57,5.56,51.11,32.32,4.61,25.66,4.06,48.63,51.37,5.16,56.28,15.8112,42.2419,1.2979,0.3835,0.0295,0.0,0.009174,19.211009,15272,-72.9933618342,5.66892506903,0.0,0.0,0.0,14.207461158434553,13.607483009497324,13.48309073845544,76.75132067998254,81.92859236399339,100.57467492421466,0
15276,Floresta,3463,3350,3266,0,0,0,5.21,13.75,20.84,60.2,0.0,0.16,20.56,8.63,40.21,20.4,7.41,32.49,1.98,47.24,52.76,7.16,48.8,23.023000000000003,26.5265,0.1502,0.0,0.0,0.0,0.011765,12.247059,15276,-72.9313288334,5.85841409325,0.0,0.0,0.0,15.16701116164525,14.573087652524316,14.4317684173584,67.75671243667598,69.93624893824257,84.66924730936687,0
15293,Gachantivá,2895,2818,2789,0,0,0,6.27,17.53,18.91,57.29,0.18,0.0,26.75,7.98,37.68,34.84,2.3,26.86,1.17,52.33,47.67,19.02,50.27,20.8696,26.6848,1.087,0.0,0.0,0.0,0.015152,14.575758,15293,-73.5490931245,5.75188848507,0.0,0.0,0.0,17.108446876208003,16.504649082819615,16.3977696100871,105.75799433390303,109.83006604512536,134.05896155039468,1
15296,Gámeza,4960,4878,4850,0,0,0,7.12,19.18,22.09,51.6,0.2,0.0,8.62,7.33,35.02,27.28,3.32,30.85,0.64,50.99,49.01,6.06,53.13,22.3838,32.1616,0.3232,0.0404,0.0,0.0,0.011364,15.886364000000002,15296,-72.8055270159,5.80233579091,0.0,0.0,0.0,7.155380775531132,6.559048493703206,6.4067262907822915,78.44874326388036,79.50296338399255,98.26627175013233,0
15299,Garagoa,17979,17922,17932,2,0,0,5.8,14.61,20.91,58.68,0.23,0.02,9.28,4.79,50.7,37.18,4.99,19.84,2.96,47.29,52.71,11.02,56.79,14.2566,46.8236,7.1419,0.1632,0.0408,0.0,0.005236,27.094241,15299,-73.3644267841,5.08324283869,0.038461538461538464,0.0,0.0,16.09372202555338,15.471565047899874,15.392962416013084,124.79885848363234,127.2247514724732,158.38486242294312,1
15317,Guacamayas,1940,1893,1865,0,0,0,7.09,13.46,21.06,58.38,0.06,0.0,5.53,6.42,47.37,27.49,4.41,31.62,1.34,48.94,51.06,11.18,53.85,25.188,32.0489,0.094,0.0,0.0,0.0,0.0,10.508475,15317,-72.5008156901,6.45966545849,0.0,0.0,0.0,13.719482779502883,13.118202428023018,12.944287439187368,68.31804378827411,76.40580670038857,89.58387966950743,0
15322,Guateque,10499,10633,10699,1,0,2,5.15,14.44,19.43,60.99,0.09,0.01,9.0,5.23,53.76,41.02,3.55,18.53,3.0,47.26,52.74,6.55,51.34,18.4807,36.0317,10.2494,0.2721,0.0,0.0,0.0277779999999999,81.19444399999999,15322,-73.4712060695,5.0073212036,0.019230769230769232,0.0,0.0392156862745098,18.920947591463726,18.29685195287068,18.22698775927226,113.40191713968926,113.56797854105638,138.54822492599496,1
15325,Guayatá,3696,3457,3400,0,0,0,3.66,12.92,13.98,69.44,0.03,0.03,21.92,9.35,35.12,33.8,3.66,29.27,1.64,50.16,49.84,13.15,65.38,9.8913,52.9891,3.3696,0.1087,0.0,0.0,0.0,12.281553,15325,-73.4896957862,4.9671242815,0.0,0.0,0.0,19.431523044904086,18.809018413225804,18.7422217130661,139.93395694096884,141.65423520406083,176.61867109934497,2
15332,Güicán de La Sierra,4419,4325,4279,0,0,0,8.72,19.74,23.64,47.9,0.13,20.66,7.57,20.07,37.26,27.19,2.42,32.64,0.56,50.24,49.76,24.72,62.36,27.0777,24.6113,0.3217,0.1609,0.0,0.0536,0.001091,1.343511,15332,-72.411765819,6.46285998881,0.0,0.0,0.0,4.568684344490371,3.942621173957983,3.7580291753013917,52.634378353754705,59.50684765974683,73.46785592039424,0
15362,Iza,1954,1943,1947,0,0,0,5.81,17.44,23.3,53.45,0.31,0.51,9.62,5.35,52.83,33.64,5.2,22.79,2.98,49.69,50.31,6.03,59.27,22.8448,41.1638,1.5086,0.2155,0.0,0.0,0.037037,11.666667,15362,-72.9795593407,5.61157775921,0.0,0.0,0.0,14.723642388979593,14.121797839800527,13.998389105002083,66.53415807088213,67.71156406402592,83.13682166735325,0
15367,Jenesano,7157,7149,7200,0,0,0,6.51,16.41,20.53,56.56,0.09,0.0,6.93,9.74,35.99,28.34,2.54,29.56,0.95,49.23,50.77,9.61,47.18,9.2481,37.4009,1.2011,0.1201,0.0,0.0,0.016949,35.457627,15367,-73.3638083915,5.3857721813,0.0,0.0,0.0,15.386558890342718,14.768004337946577,14.677502314249681,84.58267704645796,86.91116221745813,108.72506825129187,0
15368,Jericó,4324,4055,3929,0,0,0,6.5,17.97,22.91,52.63,0.17,0.0,11.13,12.71,31.02,12.77,12.15,38.64,0.08,51.84,48.16,25.17,55.19,45.1518,7.2478,0.1469,0.0,0.0,0.0,0.005587,6.486034,15368,-72.55871062055,6.1500680266700005,0.0,0.0,0.0,15.794085144996638,15.19522098700205,15.028272072474175,85.32598543167124,92.75688195228578,109.28991802533467,0
15377,Labranzagrande,4046,3691,3526,6,0,0,5.89,13.2,21.76,59.15,0.0,0.03,18.73,14.73,26.41,27.51,10.73,25.82,0.65,53.59,46.41,28.98,64.46,33.9974,14.0103,0.1928,0.0,0.0,0.0,0.0016,1.6704,15377,-72.5777694431,5.56268780724,0.11538461538461539,0.0,0.0,20.661883989969894,20.05104080835979,19.918749094009403,128.47288465499886,128.06774981816622,162.40139500300094,2
15380,La Capilla,2794,2727,2689,1,0,1,5.04,12.61,17.65,64.7,0.0,0.0,25.52,8.65,34.26,30.13,3.43,32.91,1.35,50.57,49.43,14.83,63.41,16.7074,49.5518,0.978,0.0,0.0815,0.0,0.017544,15.245614000000002,15380,-73.4443470863,5.09568803762,0.019230769230769232,0.0,0.0196078431372549,15.71170576413474,15.086018721262617,15.013087272644048,119.72546990712482,122.83159414927168,152.00295225779212,1
15401,La Victoria,1169,1125,1118,0,0,0,4.18,15.06,21.97,58.79,0.1,0.0,18.1,12.34,33.89,38.49,8.05,23.12,0.31,52.72,47.28,23.59,70.57,51.462,13.4503,1.5595,0.0,0.1949,0.0,0.0,3.463636,15401,-74.2343971323,5.5237945994,0.0,0.0,0.0,21.933989127477016,21.332513570785526,21.259994824727368,160.68907674153658,171.59884262084964,195.68986479441318,2
15403,La Uvita,3264,3125,2999,1,0,0,5.78,13.37,21.0,59.85,0.03,0.0,10.9,6.82,44.85,18.98,6.37,34.99,1.36,50.7,49.3,11.0,51.16,20.5171,30.9131,0.11,0.055,0.0,0.0,0.005682,5.625,15403,-72.5524902776,6.28083611347,0.019230769230769232,0.0,0.0,12.964450796445208,12.365123550097147,12.192684511343643,67.834281206131,71.4846072991689,87.74859650929771,0
15407,Villa de Leyva,14197,15394,16139,1,1,0,6.58,14.61,24.96,53.85,0.28,0.12,5.84,3.72,59.57,47.12,3.86,10.84,4.32,48.81,51.19,2.93,45.32,11.6709,34.9457,12.5151,2.1037,0.268,0.0268,0.007812,36.9375,15407,-73.5246858959,5.63265703354,0.019230769230769232,0.018867924528301886,0.0,17.524977326393117,16.916969537734985,16.815399765968305,83.99552297592166,88.81662209828693,107.27143383026119,0
15425,Macanal,4853,4921,4976,0,0,0,5.27,14.32,19.2,61.21,0.11,0.03,11.52,8.24,38.87,36.77,2.44,24.5,0.73,50.59,49.41,14.27,58.04,19.9068,39.3473,0.2797,0.0,0.0,0.0,0.005025,6.552764,15425,-73.28088759574999,4.9906917431,0.0,0.0,0.0,19.220043261845927,18.59853712717691,18.52800754706065,128.62850348154706,129.31164868672695,161.11737171808878,2
15442,Maripí,6268,5899,5741,81,20,2,5.75,16.16,21.24,56.85,0.15,0.21,17.52,13.65,33.4,28.15,2.09,33.94,0.11,55.19,44.81,53.32,64.06,28.0388,30.3878,0.3729,0.0746,0.0373,0.0,0.00625,10.9625,15442,-74.0429969236,5.5907431502675,1.5576923076923077,0.37735849056603776,0.0392156862745098,23.35055216153462,22.7417848110199,22.659948666890468,140.71506818135575,148.87024084726974,172.61438941955564,2
15455,Miraflores,9030,8897,8847,92,0,0,5.41,14.12,20.99,59.48,0.25,0.02,15.25,7.37,48.08,40.21,3.88,19.51,1.35,49.95,50.05,10.59,62.58,32.2856,43.475,0.8801,0.0251,0.0,0.0,0.0038759999999999,11.988372,15455,-73.1456279863,5.19651615513,1.7692307692307692,0.0,0.0,16.008970975875865,15.389352838198343,15.302373846371966,148.4734112421672,148.24104054768884,184.34313583374023,2
15464,Mongua,4755,4667,4636,0,0,0,6.56,18.6,23.12,51.72,0.12,0.0,19.93,8.14,39.56,21.26,5.3,34.4,0.37,48.21,51.79,9.46,55.27,21.0412,30.8026,0.3037,0.0,0.0,0.0,0.00274,3.706849,15464,-72.7981001021,5.75423927382,0.0,0.0,0.0,17.486653765042625,16.885011951128643,16.738136967023205,120.55066307385762,118.9175763130188,153.9180769125621,1
15466,Monguí,4605,4385,4234,0,0,0,6.57,16.28,23.7,53.45,0.13,0.0,12.45,7.8,49.6,31.53,5.34,19.41,2.9,47.16,52.84,3.19,39.71,12.8035,27.2364,0.9312,0.0,0.0,0.0,0.014493,18.492754,15466,-72.8492622931,5.72340786063,0.0,0.0,0.0,7.87033012509346,7.272739142179489,7.13185360034307,75.72772296269733,77.16799791653952,94.25357913970949,0
15469,Moniquirá,22493,22504,22572,311,5,0,5.94,15.46,21.37,57.22,0.15,0.0,6.92,7.88,50.34,39.41,3.53,20.2,3.24,49.46,50.54,12.8,48.77,16.6195,31.6028,11.291,0.7624,0.0685,0.0,0.013636,32.668182,15469,-73.5733706158,5.87633305531,5.980769230769231,0.09433962264150944,0.0,19.614871025085467,19.016281525293987,18.903173963228856,131.96062278747553,139.32309214274093,169.64529705047616,2
15476,Motavita,5608,5542,5569,0,0,0,7.42,18.31,25.62,48.64,0.11,0.0,6.24,5.67,42.83,20.67,5.06,36.17,0.19,49.36,50.64,26.43,67.14,53.4595,14.3243,0.5405,0.0,0.0,0.0,0.016393,21.409836,15476,-73.3678389344,5.57770072028,0.0,0.0,0.0,11.887776712576567,11.279421567916868,11.17843067646026,69.76062726974494,73.23955583572393,89.7904992898305,0
15480,Muzo,9242,8915,8597,263,39,3,6.61,16.36,24.49,52.54,0.24,0.12,9.05,9.36,45.72,33.4,7.68,15.17,0.49,54.43,45.57,38.28,79.51,59.8628,24.163,0.9278,0.0403,0.0,0.0,0.007353,16.683823999999998,15480,-74.1027542999,5.53245722089,5.0576923076923075,0.7358490566037735,0.058823529411764705,24.038305441538498,23.432142337163285,23.355760335922252,139.88756402333578,146.6055049896239,174.6382090250651,2
15491,Nobsa,15303,15688,15976,0,0,0,6.18,14.84,25.34,53.64,0.09,0.0,8.26,2.72,63.09,36.24,6.12,17.07,4.48,48.09,51.91,1.03,64.97,7.7236,72.0621,1.9401,0.0554,0.037,0.0185,0.018868,84.339623,15491,-72.93709675188182,5.771063943511819,0.0,0.0,0.0,15.236560583114624,14.639859338601434,14.504095315933235,67.67550261815391,69.15215969085692,84.20848846435541,0
